[
  {
    "id": 100101,
    "zip_code": 10200,
    "name_th": "พระบรมมหาราชวัง",
    "name_en": "Phra Borom Maha Ratchawang",
    "latitude": 13.751,
    "longitude": 100.492,
    "DistrictId": 1
  },
  {
    "id": 100102,
    "zip_code": 10200,
    "name_th": "วังบูรพาภิรมย์",
    "name_en": "Wang Burapha Phirom",
    "latitude": 13.744,
    "longitude": 100.499,
    "DistrictId": 1
  },
  {
    "id": 100103,
    "zip_code": 10200,
    "name_th": "วัดราชบพิธ",
    "name_en": "Wat Ratchabophit",
    "latitude": 13.75,
    "longitude": 100.499,
    "DistrictId": 1
  },
  {
    "id": 100104,
    "zip_code": 10200,
    "name_th": "สำราญราษฎร์",
    "name_en": "Samran Rat",
    "latitude": 13.751,
    "longitude": 100.503,
    "DistrictId": 1
  },
  {
    "id": 100105,
    "zip_code": 10200,
    "name_th": "ศาลเจ้าพ่อเสือ",
    "name_en": "San Chao Pho Suea",
    "latitude": 13.754,
    "longitude": 100.497,
    "DistrictId": 1
  },
  {
    "id": 100106,
    "zip_code": 10200,
    "name_th": "เสาชิงช้า",
    "name_en": "Sao Chingcha",
    "latitude": 13.753,
    "longitude": 100.5,
    "DistrictId": 1
  },
  {
    "id": 100107,
    "zip_code": 10200,
    "name_th": "บวรนิเวศ",
    "name_en": "Bowon Niwet",
    "latitude": 13.757,
    "longitude": 100.501,
    "DistrictId": 1
  },
  {
    "id": 100108,
    "zip_code": 10200,
    "name_th": "ตลาดยอด",
    "name_en": "Talat Yot",
    "latitude": 13.76,
    "longitude": 100.498,
    "DistrictId": 1
  },
  {
    "id": 100109,
    "zip_code": 10200,
    "name_th": "ชนะสงคราม",
    "name_en": "Chana Songkhram",
    "latitude": 13.762,
    "longitude": 100.495,
    "DistrictId": 1
  },
  {
    "id": 100110,
    "zip_code": 10200,
    "name_th": "บ้านพานถม",
    "name_en": "Ban Phan Thom",
    "latitude": 13.762,
    "longitude": 100.503,
    "DistrictId": 1
  },
  {
    "id": 100111,
    "zip_code": 10200,
    "name_th": "บางขุนพรหม",
    "name_en": "Bang Khun Phrom",
    "latitude": 13.765,
    "longitude": 100.505,
    "DistrictId": 1
  },
  {
    "id": 100112,
    "zip_code": 10200,
    "name_th": "วัดสามพระยา",
    "name_en": "Wat Sam Phraya",
    "latitude": 13.768,
    "longitude": 100.499,
    "DistrictId": 1
  },
  {
    "id": 100201,
    "zip_code": 10300,
    "name_th": "ดุสิต",
    "name_en": "Dusit",
    "latitude": 13.772,
    "longitude": 100.513,
    "DistrictId": 2
  },
  {
    "id": 100202,
    "zip_code": 10300,
    "name_th": "วชิรพยาบาล",
    "name_en": "Wachiraphayaban",
    "latitude": 13.778,
    "longitude": 100.505,
    "DistrictId": 2
  },
  {
    "id": 100203,
    "zip_code": 10300,
    "name_th": "สวนจิตรลดา",
    "name_en": "Suan Chit Lada",
    "latitude": 13.767,
    "longitude": 100.52,
    "DistrictId": 2
  },
  {
    "id": 100204,
    "zip_code": 10300,
    "name_th": "สี่แยกมหานาค",
    "name_en": "Si Yaek Maha Nak",
    "latitude": 13.758,
    "longitude": 100.517,
    "DistrictId": 2
  },
  {
    "id": 100205,
    "zip_code": 0,
    "name_th": "*บางซื่อ",
    "name_en": "*Bang Sue",
    "latitude": 13.789,
    "longitude": 100.522,
    "DistrictId": 2
  },
  {
    "id": 100206,
    "zip_code": 10300,
    "name_th": "ถนนนครไชยศรี",
    "name_en": "Thanon Nakhon Chai Si",
    "latitude": 13.823,
    "longitude": 100.897,
    "DistrictId": 2
  },
  {
    "id": 100299,
    "zip_code": 0,
    "name_th": "*สามเสนใน",
    "name_en": "*Sam Sen Nai",
    "latitude": 13.869,
    "longitude": 100.885,
    "DistrictId": 2
  },
  {
    "id": 100301,
    "zip_code": 10530,
    "name_th": "กระทุ่มราย",
    "name_en": "Krathum Rai",
    "latitude": 13.914,
    "longitude": 100.82,
    "DistrictId": 3
  },
  {
    "id": 100302,
    "zip_code": 10530,
    "name_th": "หนองจอก",
    "name_en": "Nong Chok",
    "latitude": 13.914,
    "longitude": 100.88,
    "DistrictId": 3
  },
  {
    "id": 100303,
    "zip_code": 10530,
    "name_th": "คลองสิบ",
    "name_en": "Khlong Sip",
    "latitude": 13.84,
    "longitude": 100.836,
    "DistrictId": 3
  },
  {
    "id": 100304,
    "zip_code": 10530,
    "name_th": "คลองสิบสอง",
    "name_en": "Khlong Sip Song",
    "latitude": 13.872,
    "longitude": 100.81,
    "DistrictId": 3
  },
  {
    "id": 100305,
    "zip_code": 10530,
    "name_th": "โคกแฝด",
    "name_en": "Khok Faet",
    "latitude": 13.797,
    "longitude": 100.844,
    "DistrictId": 3
  },
  {
    "id": 100306,
    "zip_code": 10530,
    "name_th": "คู้ฝั่งเหนือ",
    "name_en": "Khu Fang Nuea",
    "latitude": 13.781,
    "longitude": 100.877,
    "DistrictId": 3
  },
  {
    "id": 100307,
    "zip_code": 10530,
    "name_th": "ลำผักชี",
    "name_en": "Lam Phak Chi",
    "latitude": 13.734,
    "longitude": 100.52,
    "DistrictId": 3
  },
  {
    "id": 100308,
    "zip_code": 10530,
    "name_th": "ลำต้อยติ่ง",
    "name_en": "Lam Toiting",
    "latitude": 13.73,
    "longitude": 100.525,
    "DistrictId": 3
  },
  {
    "id": 100401,
    "zip_code": 10500,
    "name_th": "มหาพฤฒาราม",
    "name_en": "Maha Phruettharam",
    "latitude": 13.724,
    "longitude": 100.53,
    "DistrictId": 4
  },
  {
    "id": 100402,
    "zip_code": 10500,
    "name_th": "สีลม",
    "name_en": "Si Lom",
    "latitude": 13.727,
    "longitude": 100.527,
    "DistrictId": 4
  },
  {
    "id": 100403,
    "zip_code": 10500,
    "name_th": "สุริยวงศ์",
    "name_en": "Suriyawong",
    "latitude": 13.725,
    "longitude": 100.514,
    "DistrictId": 4
  },
  {
    "id": 100404,
    "zip_code": 10500,
    "name_th": "บางรัก",
    "name_en": "Bang Rak",
    "latitude": 13.868,
    "longitude": 100.606,
    "DistrictId": 4
  },
  {
    "id": 100405,
    "zip_code": 10500,
    "name_th": "สี่พระยา",
    "name_en": "Si Phraya",
    "latitude": 13.866,
    "longitude": 100.65,
    "DistrictId": 4
  },
  {
    "id": 100501,
    "zip_code": 0,
    "name_th": "*ลาดยาว",
    "name_en": "*Lad Yao",
    "latitude": 13.786,
    "longitude": 100.635,
    "DistrictId": 5
  },
  {
    "id": 100502,
    "zip_code": 10220,
    "name_th": "อนุสาวรีย์",
    "name_en": "Anusawari",
    "latitude": 13.756,
    "longitude": 100.66,
    "DistrictId": 5
  },
  {
    "id": 100503,
    "zip_code": 0,
    "name_th": "คลองถนน*",
    "name_en": "Khlong Thanon*",
    "latitude": 13.744,
    "longitude": 100.52,
    "DistrictId": 5
  },
  {
    "id": 100504,
    "zip_code": 0,
    "name_th": "*ตลาดบางเขน",
    "name_en": "*Talad Bang Khen",
    "latitude": 13.742,
    "longitude": 100.526,
    "DistrictId": 5
  },
  {
    "id": 100505,
    "zip_code": 0,
    "name_th": "*สีกัน",
    "name_en": "*See Kan",
    "latitude": 13.74,
    "longitude": 100.535,
    "DistrictId": 5
  },
  {
    "id": 100506,
    "zip_code": 0,
    "name_th": "สายไหม*",
    "name_en": "Sai Mai*",
    "latitude": 13.736,
    "longitude": 100.546,
    "DistrictId": 5
  },
  {
    "id": 100507,
    "zip_code": 0,
    "name_th": "*ทุ่งสองห้อง",
    "name_en": "*Thung Song Hong",
    "latitude": 13.743,
    "longitude": 100.514,
    "DistrictId": 5
  },
  {
    "id": 100508,
    "zip_code": 10220,
    "name_th": "ท่าแร้ง",
    "name_en": "Tha Raeng",
    "latitude": 13.749,
    "longitude": 100.512,
    "DistrictId": 5
  },
  {
    "id": 100509,
    "zip_code": 0,
    "name_th": "ออเงิน*",
    "name_en": "Or Ngern*",
    "latitude": 13.753,
    "longitude": 100.513,
    "DistrictId": 5
  },
  {
    "id": 100599,
    "zip_code": 0,
    "name_th": "*บางเขน",
    "name_en": "*Bang Khen",
    "latitude": 13.752,
    "longitude": 100.507,
    "DistrictId": 5
  },
  {
    "id": 100601,
    "zip_code": 10240,
    "name_th": "คลองจั่น",
    "name_en": "Khlong Chan",
    "latitude": 13.759,
    "longitude": 100.511,
    "DistrictId": 6
  },
  {
    "id": 100602,
    "zip_code": 0,
    "name_th": "วังทองหลาง*",
    "name_en": "Wang Thong Lang*",
    "latitude": 13.692,
    "longitude": 100.626,
    "DistrictId": 6
  },
  {
    "id": 100603,
    "zip_code": 0,
    "name_th": "*ลาดพร้าว",
    "name_en": "*Lad Prao",
    "latitude": 13.804,
    "longitude": 100.723,
    "DistrictId": 6
  },
  {
    "id": 100604,
    "zip_code": 0,
    "name_th": "*คลองกุ่ม",
    "name_en": "*Klong Khum",
    "latitude": 13.812,
    "longitude": 100.774,
    "DistrictId": 6
  },
  {
    "id": 100605,
    "zip_code": 0,
    "name_th": "*สะพานสูง",
    "name_en": "*Saphan Sung",
    "latitude": 13.723,
    "longitude": 100.771,
    "DistrictId": 6
  },
  {
    "id": 100606,
    "zip_code": 0,
    "name_th": "*คันนายาว",
    "name_en": "*Khan Na Yao",
    "latitude": 13.753,
    "longitude": 100.723,
    "DistrictId": 6
  },
  {
    "id": 100607,
    "zip_code": 0,
    "name_th": "*จรเข้บัว",
    "name_en": "*Chorakhe Bua",
    "latitude": 13.753,
    "longitude": 100.754,
    "DistrictId": 6
  },
  {
    "id": 100608,
    "zip_code": 10240,
    "name_th": "หัวหมาก",
    "name_en": "Hua Mak",
    "latitude": 13.765,
    "longitude": 100.817,
    "DistrictId": 6
  },
  {
    "id": 100701,
    "zip_code": 10330,
    "name_th": "รองเมือง",
    "name_en": "Rong Mueang",
    "latitude": 13.728,
    "longitude": 100.815,
    "DistrictId": 7
  },
  {
    "id": 100702,
    "zip_code": 10330,
    "name_th": "วังใหม่",
    "name_en": "Wang Mai",
    "latitude": 13.736,
    "longitude": 100.855,
    "DistrictId": 7
  },
  {
    "id": 100703,
    "zip_code": 10330,
    "name_th": "ปทุมวัน",
    "name_en": "Pathum Wan",
    "latitude": 13.682,
    "longitude": 100.533,
    "DistrictId": 7
  },
  {
    "id": 100704,
    "zip_code": 10330,
    "name_th": "ลุมพินี",
    "name_en": "Lumphini",
    "latitude": 13.697,
    "longitude": 100.544,
    "DistrictId": 7
  },
  {
    "id": 100801,
    "zip_code": 10100,
    "name_th": "ป้อมปราบ",
    "name_en": "Pom Prap",
    "latitude": 13.741,
    "longitude": 100.504,
    "DistrictId": 8
  },
  {
    "id": 100802,
    "zip_code": 10100,
    "name_th": "วัดเทพศิรินทร์",
    "name_en": "Wat Thep Sirin",
    "latitude": 13.739,
    "longitude": 100.511,
    "DistrictId": 8
  },
  {
    "id": 100803,
    "zip_code": 10100,
    "name_th": "คลองมหานาค",
    "name_en": "Khlong Maha Nak",
    "latitude": 13.734,
    "longitude": 100.513,
    "DistrictId": 8
  },
  {
    "id": 100804,
    "zip_code": 10100,
    "name_th": "บ้านบาตร",
    "name_en": "Ban Bat",
    "latitude": 13.782,
    "longitude": 100.545,
    "DistrictId": 8
  },
  {
    "id": 100805,
    "zip_code": 10100,
    "name_th": "วัดโสมนัส",
    "name_en": "Wat Sommanat",
    "latitude": 13.737,
    "longitude": 100.493,
    "DistrictId": 8
  },
  {
    "id": 100899,
    "zip_code": 0,
    "name_th": "*นางเลิ้ง",
    "name_en": "*Nang Lerng",
    "latitude": 13.731,
    "longitude": 100.49,
    "DistrictId": 8
  },
  {
    "id": 100901,
    "zip_code": 0,
    "name_th": "*คลองเตย",
    "name_en": "*Khlong Toei",
    "latitude": 13.72,
    "longitude": 100.482,
    "DistrictId": 9
  },
  {
    "id": 100902,
    "zip_code": 0,
    "name_th": "*คลองตัน",
    "name_en": "*Khlong Ton",
    "latitude": 13.707,
    "longitude": 100.486,
    "DistrictId": 9
  },
  {
    "id": 100903,
    "zip_code": 0,
    "name_th": "*พระโขนง",
    "name_en": "*Phra Kha Nong",
    "latitude": 13.715,
    "longitude": 100.473,
    "DistrictId": 9
  },
  {
    "id": 100904,
    "zip_code": 0,
    "name_th": "บางนา*",
    "name_en": "Ban Na*",
    "latitude": null,
    "longitude": null,
    "DistrictId": 9
  },
  {
    "id": 100905,
    "zip_code": 10260,
    "name_th": "บางจาก",
    "name_en": "Bang Chak",
    "latitude": null,
    "longitude": null,
    "DistrictId": 9
  },
  {
    "id": 100906,
    "zip_code": 0,
    "name_th": "*สวนหลวง",
    "name_en": "*Suan Luang",
    "latitude": 13.743,
    "longitude": 100.486,
    "DistrictId": 9
  },
  {
    "id": 100907,
    "zip_code": 0,
    "name_th": "*หนองบอน",
    "name_en": "*Nong Bon",
    "latitude": 13.733,
    "longitude": 100.475,
    "DistrictId": 9
  },
  {
    "id": 100908,
    "zip_code": 0,
    "name_th": "*ประเวศ",
    "name_en": "*Prawet",
    "latitude": 13.769,
    "longitude": 100.577,
    "DistrictId": 9
  },
  {
    "id": 100909,
    "zip_code": 0,
    "name_th": "*ดอกไม้",
    "name_en": "*Dok Mai",
    "latitude": 13.752,
    "longitude": 100.586,
    "DistrictId": 9
  },
  {
    "id": 100997,
    "zip_code": 0,
    "name_th": "*พระโขนง",
    "name_en": "*Phra Kha Nong",
    "latitude": 13.796,
    "longitude": 100.579,
    "DistrictId": 9
  },
  {
    "id": 100998,
    "zip_code": 0,
    "name_th": "*คลองตัน",
    "name_en": "*Khlong Ton",
    "latitude": 13.731,
    "longitude": 100.497,
    "DistrictId": 9
  },
  {
    "id": 100999,
    "zip_code": 0,
    "name_th": "*คลองเตย",
    "name_en": "*Khlong Toei",
    "latitude": 13.735,
    "longitude": 100.504,
    "DistrictId": 9
  },
  {
    "id": 101001,
    "zip_code": 10510,
    "name_th": "มีนบุรี",
    "name_en": "Min Buri",
    "latitude": 13.715,
    "longitude": 100.501,
    "DistrictId": 10
  },
  {
    "id": 101002,
    "zip_code": 10510,
    "name_th": "แสนแสบ",
    "name_en": "Saen Saep",
    "latitude": 13.725,
    "longitude": 100.508,
    "DistrictId": 10
  },
  {
    "id": 101003,
    "zip_code": 0,
    "name_th": "บางชัน*",
    "name_en": "Bang Chan*",
    "latitude": 13.76,
    "longitude": 100.456,
    "DistrictId": 10
  },
  {
    "id": 101004,
    "zip_code": 0,
    "name_th": "ทรายกองดิน*",
    "name_en": "Sai Kong Din*",
    "latitude": 13.789,
    "longitude": 100.459,
    "DistrictId": 10
  },
  {
    "id": 101005,
    "zip_code": 0,
    "name_th": "ทรายกองดินใต้*",
    "name_en": "Sai Kong Din Tai*",
    "latitude": 13.786,
    "longitude": 100.432,
    "DistrictId": 10
  },
  {
    "id": 101006,
    "zip_code": 0,
    "name_th": "สามวาตะวันออก*",
    "name_en": "Sam Wa Ta Wan Ook*",
    "latitude": 13.752,
    "longitude": 100.442,
    "DistrictId": 10
  },
  {
    "id": 101007,
    "zip_code": 0,
    "name_th": "สามวาตะวันตก*",
    "name_en": "Sam Wa Ta Wan Tok*",
    "latitude": 13.767,
    "longitude": 100.431,
    "DistrictId": 10
  },
  {
    "id": 101101,
    "zip_code": 10520,
    "name_th": "ลาดกระบัง",
    "name_en": "Lat Krabang",
    "latitude": 13.751,
    "longitude": 100.419,
    "DistrictId": 11
  },
  {
    "id": 101102,
    "zip_code": 10520,
    "name_th": "คลองสองต้นนุ่น",
    "name_en": "Khlong Song Ton Nun",
    "latitude": 13.759,
    "longitude": 100.481,
    "DistrictId": 11
  },
  {
    "id": 101103,
    "zip_code": 10520,
    "name_th": "คลองสามประเวศ",
    "name_en": "Khlong Sam Prawet",
    "latitude": 13.752,
    "longitude": 100.477,
    "DistrictId": 11
  },
  {
    "id": 101104,
    "zip_code": 10520,
    "name_th": "ลำปลาทิว",
    "name_en": "Lam Pla Thio",
    "latitude": 13.774,
    "longitude": 100.466,
    "DistrictId": 11
  },
  {
    "id": 101105,
    "zip_code": 10520,
    "name_th": "ทับยาว",
    "name_en": "Thap Yao",
    "latitude": 13.76,
    "longitude": 100.463,
    "DistrictId": 11
  },
  {
    "id": 101106,
    "zip_code": 10520,
    "name_th": "ขุมทอง",
    "name_en": "Khum Thong",
    "latitude": 13.772,
    "longitude": 100.477,
    "DistrictId": 11
  },
  {
    "id": 101201,
    "zip_code": 0,
    "name_th": "*ทุ่งวัดดอน",
    "name_en": "*Thung Wat Don",
    "latitude": 13.555,
    "longitude": 100.434,
    "DistrictId": 12
  },
  {
    "id": 101202,
    "zip_code": 0,
    "name_th": "*ยานนาวา",
    "name_en": "*Yan Nawa",
    "latitude": 13.605,
    "longitude": 100.395,
    "DistrictId": 12
  },
  {
    "id": 101203,
    "zip_code": 10120,
    "name_th": "ช่องนนทรี",
    "name_en": "Chong Nonsi",
    "latitude": 13.714,
    "longitude": 100.443,
    "DistrictId": 12
  },
  {
    "id": 101204,
    "zip_code": 10120,
    "name_th": "บางโพงพาง",
    "name_en": "Bang Phongphang",
    "latitude": 13.723,
    "longitude": 100.437,
    "DistrictId": 12
  },
  {
    "id": 101205,
    "zip_code": 0,
    "name_th": "*วัดพระยาไกร",
    "name_en": "*Pra Ya Krai",
    "latitude": 13.727,
    "longitude": 100.45,
    "DistrictId": 12
  },
  {
    "id": 101206,
    "zip_code": 0,
    "name_th": "*บางโคล่",
    "name_en": "*Bang Khlo",
    "latitude": 13.736,
    "longitude": 100.445,
    "DistrictId": 12
  },
  {
    "id": 101207,
    "zip_code": 0,
    "name_th": "*บางคอแหลม",
    "name_en": "*Bang Kho Laem",
    "latitude": 13.738,
    "longitude": 100.423,
    "DistrictId": 12
  },
  {
    "id": 101208,
    "zip_code": 0,
    "name_th": "*ทุ่งมหาเมฆ",
    "name_en": "*Tung Ma Ha Mek",
    "latitude": 13.722,
    "longitude": 100.464,
    "DistrictId": 12
  },
  {
    "id": 101298,
    "zip_code": 0,
    "name_th": "*บางโคล่",
    "name_en": "*Bang Khlo",
    "latitude": 13.727,
    "longitude": 100.457,
    "DistrictId": 12
  },
  {
    "id": 101299,
    "zip_code": 0,
    "name_th": "*บางคอแหลม",
    "name_en": "*Bang Kho Laem",
    "latitude": 13.68,
    "longitude": 100.358,
    "DistrictId": 12
  },
  {
    "id": 101301,
    "zip_code": 10100,
    "name_th": "จักรวรรดิ",
    "name_en": "Chakkrawat",
    "latitude": 13.714,
    "longitude": 100.351,
    "DistrictId": 13
  },
  {
    "id": 101302,
    "zip_code": 10100,
    "name_th": "สัมพันธวงศ์",
    "name_en": "Samphanthawong",
    "latitude": 13.67,
    "longitude": 100.51,
    "DistrictId": 13
  },
  {
    "id": 101303,
    "zip_code": 10100,
    "name_th": "ตลาดน้อย",
    "name_en": "Talat Noi",
    "latitude": 13.675,
    "longitude": 100.491,
    "DistrictId": 13
  },
  {
    "id": 101401,
    "zip_code": 10400,
    "name_th": "สามเสนใน",
    "name_en": "Samsen Nai",
    "latitude": 13.791,
    "longitude": 100.487,
    "DistrictId": 14
  },
  {
    "id": 101402,
    "zip_code": 0,
    "name_th": "*ถนนเพชรบุรี",
    "name_en": "*Thanon Phetchaburi",
    "latitude": 13.802,
    "longitude": 100.512,
    "DistrictId": 14
  },
  {
    "id": 101403,
    "zip_code": 0,
    "name_th": "*ทุ่งพญาไท",
    "name_en": "*Thung Phaya Thai",
    "latitude": 13.781,
    "longitude": 100.482,
    "DistrictId": 14
  },
  {
    "id": 101404,
    "zip_code": 0,
    "name_th": "*มักกะสัน",
    "name_en": "*Makkasan",
    "latitude": 13.774,
    "longitude": 100.492,
    "DistrictId": 14
  },
  {
    "id": 101405,
    "zip_code": 0,
    "name_th": "*ถนนพญาไท",
    "name_en": "*Thanon Phaya Thai",
    "latitude": 13.778,
    "longitude": 100.567,
    "DistrictId": 14
  },
  {
    "id": 101499,
    "zip_code": 0,
    "name_th": "*ทุ่งพญาไท",
    "name_en": "*Thung Phaya Thai",
    "latitude": 13.808,
    "longitude": 100.65,
    "DistrictId": 14
  },
  {
    "id": 101501,
    "zip_code": 10600,
    "name_th": "วัดกัลยาณ์",
    "name_en": "Wat Kanlaya",
    "latitude": null,
    "longitude": null,
    "DistrictId": 15
  },
  {
    "id": 101502,
    "zip_code": 10600,
    "name_th": "หิรัญรูจี",
    "name_en": "Hiran Ruchi",
    "latitude": null,
    "longitude": null,
    "DistrictId": 15
  },
  {
    "id": 101503,
    "zip_code": 10600,
    "name_th": "บางยี่เรือ",
    "name_en": "Bang Yi Ruea",
    "latitude": 13.71,
    "longitude": 100.532,
    "DistrictId": 15
  },
  {
    "id": 101504,
    "zip_code": 10600,
    "name_th": "บุคคโล",
    "name_en": "Bukkhalo",
    "latitude": 13.714,
    "longitude": 100.514,
    "DistrictId": 15
  },
  {
    "id": 101505,
    "zip_code": 10600,
    "name_th": "ตลาดพลู",
    "name_en": "Talat Phlu",
    "latitude": 13.718,
    "longitude": 100.541,
    "DistrictId": 15
  },
  {
    "id": 101506,
    "zip_code": 10600,
    "name_th": "ดาวคะนอง",
    "name_en": "Dao Khanong",
    "latitude": 13.82,
    "longitude": 100.529,
    "DistrictId": 15
  },
  {
    "id": 101507,
    "zip_code": 10600,
    "name_th": "สำเหร่",
    "name_en": "Samre",
    "latitude": null,
    "longitude": null,
    "DistrictId": 15
  },
  {
    "id": 101599,
    "zip_code": 0,
    "name_th": "*คลองสาน",
    "name_en": "*Klong Sarn",
    "latitude": 13.826,
    "longitude": 100.565,
    "DistrictId": 15
  },
  {
    "id": 101601,
    "zip_code": 10600,
    "name_th": "วัดอรุณ",
    "name_en": "Wat Arun",
    "latitude": null,
    "longitude": null,
    "DistrictId": 16
  },
  {
    "id": 101602,
    "zip_code": 10600,
    "name_th": "วัดท่าพระ",
    "name_en": "Wat Tha Phra",
    "latitude": null,
    "longitude": null,
    "DistrictId": 16
  },
  {
    "id": 101701,
    "zip_code": 10310,
    "name_th": "ห้วยขวาง",
    "name_en": "Huai Khwang",
    "latitude": null,
    "longitude": null,
    "DistrictId": 17
  },
  {
    "id": 101702,
    "zip_code": 10310,
    "name_th": "บางกะปิ",
    "name_en": "Bang Kapi",
    "latitude": null,
    "longitude": null,
    "DistrictId": 17
  },
  {
    "id": 101703,
    "zip_code": 0,
    "name_th": "*ดินแดง",
    "name_en": "*Din Dang",
    "latitude": 13.696,
    "longitude": 100.494,
    "DistrictId": 17
  },
  {
    "id": 101704,
    "zip_code": 10310,
    "name_th": "สามเสนนอก",
    "name_en": "Samsen Nok",
    "latitude": 13.706,
    "longitude": 100.508,
    "DistrictId": 17
  },
  {
    "id": 101801,
    "zip_code": 10600,
    "name_th": "สมเด็จเจ้าพระยา",
    "name_en": "Somdet Chao Phraya",
    "latitude": 13.694,
    "longitude": 100.516,
    "DistrictId": 18
  },
  {
    "id": 101802,
    "zip_code": 10600,
    "name_th": "คลองสาน",
    "name_en": "Khlong San",
    "latitude": 13.719,
    "longitude": 100.664,
    "DistrictId": 18
  },
  {
    "id": 101803,
    "zip_code": 10600,
    "name_th": "บางลำภูล่าง",
    "name_en": "Bang Lamphu Lang",
    "latitude": 13.687,
    "longitude": 100.656,
    "DistrictId": 18
  },
  {
    "id": 101804,
    "zip_code": 10600,
    "name_th": "คลองต้นไทร",
    "name_en": "Khlong Ton Sai",
    "latitude": 13.68,
    "longitude": 100.689,
    "DistrictId": 18
  },
  {
    "id": 101901,
    "zip_code": 10170,
    "name_th": "คลองชักพระ",
    "name_en": "Khlong Chak Phra",
    "latitude": 13.71,
    "longitude": 100.57,
    "DistrictId": 19
  },
  {
    "id": 101902,
    "zip_code": 10170,
    "name_th": "ตลิ่งชัน",
    "name_en": "Taling Chan",
    "latitude": 13.723,
    "longitude": 100.571,
    "DistrictId": 19
  },
  {
    "id": 101903,
    "zip_code": 10170,
    "name_th": "ฉิมพลี",
    "name_en": "Chimphli",
    "latitude": 13.707,
    "longitude": 100.595,
    "DistrictId": 19
  },
  {
    "id": 101904,
    "zip_code": 10170,
    "name_th": "บางพรม",
    "name_en": "Bang Phrom",
    "latitude": 13.726,
    "longitude": 100.628,
    "DistrictId": 19
  },
  {
    "id": 101905,
    "zip_code": 10170,
    "name_th": "บางระมาด",
    "name_en": "Bang Ramat",
    "latitude": 13.694,
    "longitude": 100.45,
    "DistrictId": 19
  },
  {
    "id": 101906,
    "zip_code": 0,
    "name_th": "ทวีวัฒนา*",
    "name_en": "Thawi Watthana*",
    "latitude": 13.702,
    "longitude": 100.476,
    "DistrictId": 19
  },
  {
    "id": 101907,
    "zip_code": 10170,
    "name_th": "บางเชือกหนัง",
    "name_en": "Bang Chueak Nang",
    "latitude": 13.672,
    "longitude": 100.468,
    "DistrictId": 19
  },
  {
    "id": 101908,
    "zip_code": 0,
    "name_th": "ศาลาธรรมสพน์*",
    "name_en": "Sala Thammasop*",
    "latitude": 13.693,
    "longitude": 100.468,
    "DistrictId": 19
  },
  {
    "id": 102001,
    "zip_code": 0,
    "name_th": "*บางพลัด",
    "name_en": "*Bang Phlat",
    "latitude": 13.925,
    "longitude": 100.593,
    "DistrictId": 20
  },
  {
    "id": 102002,
    "zip_code": 0,
    "name_th": "*บางบำหรุ",
    "name_en": "*Bang Bumru",
    "latitude": null,
    "longitude": null,
    "DistrictId": 20
  },
  {
    "id": 102003,
    "zip_code": 0,
    "name_th": "*บางอ้อ",
    "name_en": "*Bang Aor",
    "latitude": null,
    "longitude": null,
    "DistrictId": 20
  },
  {
    "id": 102004,
    "zip_code": 10700,
    "name_th": "ศิริราช",
    "name_en": "Siri Rat",
    "latitude": 13.763,
    "longitude": 100.53,
    "DistrictId": 20
  },
  {
    "id": 102005,
    "zip_code": 10700,
    "name_th": "บ้านช่างหล่อ",
    "name_en": "Ban Chang Lo",
    "latitude": 13.757,
    "longitude": 100.538,
    "DistrictId": 20
  },
  {
    "id": 102006,
    "zip_code": 10700,
    "name_th": "บางขุนนนท์",
    "name_en": "Bang Khun Non",
    "latitude": 13.752,
    "longitude": 100.559,
    "DistrictId": 20
  },
  {
    "id": 102007,
    "zip_code": 10700,
    "name_th": "บางขุนศรี",
    "name_en": "Bang Khun Si",
    "latitude": 13.752,
    "longitude": 100.528,
    "DistrictId": 20
  },
  {
    "id": 102008,
    "zip_code": 0,
    "name_th": "*บางยี่ขัน",
    "name_en": "*Bang Yikhan",
    "latitude": 13.811,
    "longitude": 100.612,
    "DistrictId": 20
  },
  {
    "id": 102009,
    "zip_code": 10700,
    "name_th": "อรุณอมรินทร์",
    "name_en": "Arun Ammarin",
    "latitude": 13.84,
    "longitude": 100.6,
    "DistrictId": 20
  },
  {
    "id": 102097,
    "zip_code": 0,
    "name_th": "*บางยี่ขัน",
    "name_en": "*Bang Yikhan",
    "latitude": 13.743,
    "longitude": 100.56,
    "DistrictId": 20
  },
  {
    "id": 102098,
    "zip_code": 0,
    "name_th": "*บางบำหรุ",
    "name_en": "*Bang Bumru",
    "latitude": 13.736,
    "longitude": 100.576,
    "DistrictId": 20
  },
  {
    "id": 102099,
    "zip_code": 0,
    "name_th": "*บางอ้อ",
    "name_en": "*Bang Aor",
    "latitude": 13.719,
    "longitude": 100.596,
    "DistrictId": 20
  },
  {
    "id": 102101,
    "zip_code": 0,
    "name_th": "*บางค้อ",
    "name_en": "*Bang Kho",
    "latitude": 13.698,
    "longitude": 100.409,
    "DistrictId": 21
  },
  {
    "id": 102102,
    "zip_code": 0,
    "name_th": "*จอมทอง",
    "name_en": "*Chom Thong",
    "latitude": 13.72,
    "longitude": 100.4,
    "DistrictId": 21
  },
  {
    "id": 102103,
    "zip_code": 0,
    "name_th": "*บางขุนเทียน",
    "name_en": "*Bang Khun Thian",
    "latitude": 13.741,
    "longitude": 100.385,
    "DistrictId": 21
  },
  {
    "id": 102104,
    "zip_code": 0,
    "name_th": "บางบอน*",
    "name_en": "Bang Bon*",
    "latitude": 13.683,
    "longitude": 100.396,
    "DistrictId": 21
  },
  {
    "id": 102105,
    "zip_code": 10150,
    "name_th": "ท่าข้าม",
    "name_en": "Tha Kham",
    "latitude": 13.883,
    "longitude": 100.564,
    "DistrictId": 21
  },
  {
    "id": 102106,
    "zip_code": 0,
    "name_th": "*บางมด",
    "name_en": "*Bang Mod",
    "latitude": 13.871,
    "longitude": 100.58,
    "DistrictId": 21
  },
  {
    "id": 102107,
    "zip_code": 10150,
    "name_th": "แสมดำ",
    "name_en": "Samae Dam",
    "latitude": 13.921,
    "longitude": 100.654,
    "DistrictId": 21
  },
  {
    "id": 102201,
    "zip_code": 10160,
    "name_th": "บางหว้า",
    "name_en": "Bang Wa",
    "latitude": 13.896,
    "longitude": 100.672,
    "DistrictId": 22
  },
  {
    "id": 102202,
    "zip_code": 10160,
    "name_th": "บางด้วน",
    "name_en": "Bang Duan",
    "latitude": 13.898,
    "longitude": 100.63,
    "DistrictId": 22
  },
  {
    "id": 102203,
    "zip_code": 10160,
    "name_th": "บางแค",
    "name_en": "Bang Kae",
    "latitude": 13.821,
    "longitude": 100.677,
    "DistrictId": 22
  },
  {
    "id": 102204,
    "zip_code": 10160,
    "name_th": "บางแคเหนือ",
    "name_en": "Bang Kae Nua",
    "latitude": null,
    "longitude": null,
    "DistrictId": 22
  },
  {
    "id": 102205,
    "zip_code": 10160,
    "name_th": "บางไผ่",
    "name_en": "Bang Phai",
    "latitude": 13.761,
    "longitude": 100.688,
    "DistrictId": 22
  },
  {
    "id": 102206,
    "zip_code": 10160,
    "name_th": "บางจาก",
    "name_en": "Bang Chak",
    "latitude": 13.779,
    "longitude": 100.609,
    "DistrictId": 22
  },
  {
    "id": 102207,
    "zip_code": 10160,
    "name_th": "บางแวก",
    "name_en": "Bang Waek",
    "latitude": null,
    "longitude": null,
    "DistrictId": 22
  },
  {
    "id": 102208,
    "zip_code": 10160,
    "name_th": "คลองขวาง",
    "name_en": "Khlong Khwang",
    "latitude": null,
    "longitude": null,
    "DistrictId": 22
  },
  {
    "id": 102209,
    "zip_code": 10160,
    "name_th": "ปากคลองภาษีเจริญ",
    "name_en": "Pak Khlong Phasi Charoen",
    "latitude": null,
    "longitude": null,
    "DistrictId": 22
  },
  {
    "id": 102210,
    "zip_code": 10160,
    "name_th": "คูหาสวรรค์",
    "name_en": "Khuha Sawan",
    "latitude": 13.889,
    "longitude": 100.708,
    "DistrictId": 22
  },
  {
    "id": 102301,
    "zip_code": 0,
    "name_th": "หลักสอง*",
    "name_en": "Lak Song*",
    "latitude": 13.896,
    "longitude": 100.76,
    "DistrictId": 23
  },
  {
    "id": 102302,
    "zip_code": 10160,
    "name_th": "หนองแขม",
    "name_en": "Nong Khaem",
    "latitude": 13.839,
    "longitude": 100.7,
    "DistrictId": 23
  },
  {
    "id": 102303,
    "zip_code": 10160,
    "name_th": "หนองค้างพลู",
    "name_en": "Nong Khang Phlu",
    "latitude": 13.854,
    "longitude": 100.745,
    "DistrictId": 23
  },
  {
    "id": 102401,
    "zip_code": 10140,
    "name_th": "ราษฎร์บูรณะ",
    "name_en": "Rat Burana",
    "latitude": 13.861,
    "longitude": 100.786,
    "DistrictId": 24
  },
  {
    "id": 102402,
    "zip_code": 10140,
    "name_th": "บางปะกอก",
    "name_en": "Bang Pakok",
    "latitude": 13.672,
    "longitude": 100.616,
    "DistrictId": 24
  },
  {
    "id": 102403,
    "zip_code": 10140,
    "name_th": "บางมด*",
    "name_en": "Bang Mod*",
    "latitude": 13.758,
    "longitude": 100.348,
    "DistrictId": 24
  },
  {
    "id": 102404,
    "zip_code": 10140,
    "name_th": "ทุ่งครุ*",
    "name_en": "Thung Khru*",
    "latitude": 13.783,
    "longitude": 100.39,
    "DistrictId": 24
  },
  {
    "id": 102501,
    "zip_code": 10700,
    "name_th": "บางพลัด",
    "name_en": "Bang Phlat",
    "latitude": 13.651,
    "longitude": 100.51,
    "DistrictId": 25
  },
  {
    "id": 102502,
    "zip_code": 10700,
    "name_th": "บางอ้อ",
    "name_en": "Bang O",
    "latitude": 13.614,
    "longitude": 100.497,
    "DistrictId": 25
  },
  {
    "id": 102503,
    "zip_code": 10700,
    "name_th": "บางบำหรุ",
    "name_en": "Bang Bamru",
    "latitude": 13.646,
    "longitude": 100.37,
    "DistrictId": 25
  },
  {
    "id": 102504,
    "zip_code": 10700,
    "name_th": "บางยี่ขัน",
    "name_en": "Bang Yi Khan",
    "latitude": null,
    "longitude": null,
    "DistrictId": 25
  },
  {
    "id": 102601,
    "zip_code": 10400,
    "name_th": "ดินแดง",
    "name_en": "Din Daeng",
    "latitude": 13.649,
    "longitude": 100.617,
    "DistrictId": 26
  },
  {
    "id": 102701,
    "zip_code": 10240,
    "name_th": "คลองกุ่ม",
    "name_en": "Khlong Kum",
    "latitude": 13.601,
    "longitude": 100.622,
    "DistrictId": 27
  },
  {
    "id": 102702,
    "zip_code": 10240,
    "name_th": "สะพานสูง",
    "name_en": "Saphan Sung",
    "latitude": 13.556,
    "longitude": 100.599,
    "DistrictId": 27
  },
  {
    "id": 102703,
    "zip_code": 10240,
    "name_th": "คันนายาว",
    "name_en": "Khan Na Yao",
    "latitude": 13.526,
    "longitude": 100.67,
    "DistrictId": 27
  },
  {
    "id": 102801,
    "zip_code": 10120,
    "name_th": "ทุ่งวัดดอน",
    "name_en": "Thung Wat Don",
    "latitude": 13.564,
    "longitude": 100.653,
    "DistrictId": 28
  },
  {
    "id": 102802,
    "zip_code": 10120,
    "name_th": "ยานนาวา",
    "name_en": "Yan Nawa",
    "latitude": 13.623,
    "longitude": 100.565,
    "DistrictId": 28
  },
  {
    "id": 102803,
    "zip_code": 10120,
    "name_th": "ทุ่งมหาเมฆ",
    "name_en": "Thung Maha Mek",
    "latitude": null,
    "longitude": null,
    "DistrictId": 28
  },
  {
    "id": 102901,
    "zip_code": 10800,
    "name_th": "บางซื่อ",
    "name_en": "Bang Sue",
    "latitude": 13.622,
    "longitude": 100.581,
    "DistrictId": 29
  },
  {
    "id": 103001,
    "zip_code": 10900,
    "name_th": "ลาดยาว",
    "name_en": "Lat Yao",
    "latitude": null,
    "longitude": null,
    "DistrictId": 30
  },
  {
    "id": 103002,
    "zip_code": 10900,
    "name_th": "เสนานิคม",
    "name_en": "Sena Nikhom",
    "latitude": 13.634,
    "longitude": 100.61,
    "DistrictId": 30
  },
  {
    "id": 103003,
    "zip_code": 10900,
    "name_th": "จันทรเกษม",
    "name_en": "Chan Kasem",
    "latitude": 13.572,
    "longitude": 100.621,
    "DistrictId": 30
  },
  {
    "id": 103004,
    "zip_code": 10900,
    "name_th": "จอมพล",
    "name_en": "Chom Phon",
    "latitude": 13.559,
    "longitude": 100.691,
    "DistrictId": 30
  },
  {
    "id": 103005,
    "zip_code": 10900,
    "name_th": "จตุจักร",
    "name_en": "Chatuchak",
    "latitude": 13.611,
    "longitude": 100.862,
    "DistrictId": 30
  },
  {
    "id": 103101,
    "zip_code": 10120,
    "name_th": "บางคอแหลม",
    "name_en": "Bang Kho Laem",
    "latitude": 13.639,
    "longitude": 100.904,
    "DistrictId": 31
  },
  {
    "id": 103102,
    "zip_code": 10120,
    "name_th": "วัดพระยาไกร",
    "name_en": "Wat Phraya Krai",
    "latitude": 13.574,
    "longitude": 100.9,
    "DistrictId": 31
  },
  {
    "id": 103103,
    "zip_code": 10120,
    "name_th": "บางโคล่",
    "name_en": "Bang Khlo",
    "latitude": 13.545,
    "longitude": 100.805,
    "DistrictId": 31
  },
  {
    "id": 103201,
    "zip_code": 10250,
    "name_th": "ประเวศ",
    "name_en": "Prawet",
    "latitude": 13.511,
    "longitude": 100.835,
    "DistrictId": 32
  },
  {
    "id": 103202,
    "zip_code": 10250,
    "name_th": "หนองบอน",
    "name_en": "Nong Bon",
    "latitude": 13.659,
    "longitude": 100.925,
    "DistrictId": 32
  },
  {
    "id": 103203,
    "zip_code": 10250,
    "name_th": "ดอกไม้",
    "name_en": "Dokmai",
    "latitude": 13.672,
    "longitude": 100.881,
    "DistrictId": 32
  },
  {
    "id": 103204,
    "zip_code": 10250,
    "name_th": "สวนหลวง",
    "name_en": "Suan Luang",
    "latitude": 13.624,
    "longitude": 100.935,
    "DistrictId": 32
  },
  {
    "id": 103301,
    "zip_code": 10110,
    "name_th": "คลองเตย",
    "name_en": "Khlong Toei",
    "latitude": 13.618,
    "longitude": 100.694,
    "DistrictId": 33
  },
  {
    "id": 103302,
    "zip_code": 10110,
    "name_th": "คลองตัน",
    "name_en": "Khlong Tan",
    "latitude": 13.642,
    "longitude": 100.662,
    "DistrictId": 33
  },
  {
    "id": 103303,
    "zip_code": 10110,
    "name_th": "พระโขนง",
    "name_en": "Phra Khanong",
    "latitude": 13.561,
    "longitude": 100.739,
    "DistrictId": 33
  },
  {
    "id": 103304,
    "zip_code": 10110,
    "name_th": "คลองเตยเหนือ",
    "name_en": "Khlong Toei Nua",
    "latitude": 13.623,
    "longitude": 100.755,
    "DistrictId": 33
  },
  {
    "id": 103305,
    "zip_code": 10110,
    "name_th": "คลองตันเหนือ",
    "name_en": "Khlong Tan Nua",
    "latitude": 13.681,
    "longitude": 100.733,
    "DistrictId": 33
  },
  {
    "id": 103306,
    "zip_code": 10110,
    "name_th": "พระโขนงเหนือ",
    "name_en": "Phra Khanong Nua",
    "latitude": 13.678,
    "longitude": 100.75,
    "DistrictId": 33
  },
  {
    "id": 103401,
    "zip_code": 10250,
    "name_th": "สวนหลวง",
    "name_en": "Suan Luang",
    "latitude": 13.671,
    "longitude": 100.52,
    "DistrictId": 34
  },
  {
    "id": 103501,
    "zip_code": 10150,
    "name_th": "บางขุนเทียน",
    "name_en": "Bang Khun Thian",
    "latitude": null,
    "longitude": null,
    "DistrictId": 35
  },
  {
    "id": 103502,
    "zip_code": 10150,
    "name_th": "บางค้อ",
    "name_en": "Bang Kho",
    "latitude": 13.616,
    "longitude": 100.536,
    "DistrictId": 35
  },
  {
    "id": 103503,
    "zip_code": 10150,
    "name_th": "บางมด",
    "name_en": "Bang Mot",
    "latitude": 13.631,
    "longitude": 100.526,
    "DistrictId": 35
  },
  {
    "id": 103504,
    "zip_code": 10150,
    "name_th": "จอมทอง",
    "name_en": "Chom Thong",
    "latitude": 13.645,
    "longitude": 100.546,
    "DistrictId": 35
  },
  {
    "id": 103601,
    "zip_code": 0,
    "name_th": "ตลาดบางเขน*",
    "name_en": "Bang Khen Market*",
    "latitude": 13.625,
    "longitude": 100.549,
    "DistrictId": 36
  },
  {
    "id": 103602,
    "zip_code": 10210,
    "name_th": "สีกัน",
    "name_en": "Si Kan",
    "latitude": null,
    "longitude": null,
    "DistrictId": 36
  },
  {
    "id": 103603,
    "zip_code": 0,
    "name_th": "ทุ่งสองห้อง*",
    "name_en": "Thung Song Hong *",
    "latitude": 13.679,
    "longitude": 100.558,
    "DistrictId": 36
  },
  {
    "id": 103701,
    "zip_code": 10400,
    "name_th": "ทุ่งพญาไท",
    "name_en": "Thung Phaya Thai",
    "latitude": 13.697,
    "longitude": 100.561,
    "DistrictId": 37
  },
  {
    "id": 103702,
    "zip_code": 10400,
    "name_th": "ถนนพญาไท",
    "name_en": "Thanon Phaya Thai",
    "latitude": 13.679,
    "longitude": 100.578,
    "DistrictId": 37
  },
  {
    "id": 103703,
    "zip_code": 10400,
    "name_th": "ถนนเพชรบุรี",
    "name_en": "Thanon Phetchaburi",
    "latitude": 13.666,
    "longitude": 100.566,
    "DistrictId": 37
  },
  {
    "id": 103704,
    "zip_code": 10400,
    "name_th": "มักกะสัน",
    "name_en": "Makkasan",
    "latitude": 13.693,
    "longitude": 100.577,
    "DistrictId": 37
  },
  {
    "id": 103801,
    "zip_code": 10230,
    "name_th": "ลาดพร้าว",
    "name_en": "Lat Phrao",
    "latitude": 13.665,
    "longitude": 100.545,
    "DistrictId": 38
  },
  {
    "id": 103802,
    "zip_code": 10230,
    "name_th": "จรเข้บัว",
    "name_en": "Chorakhe Bua",
    "latitude": 13.659,
    "longitude": 100.584,
    "DistrictId": 38
  },
  {
    "id": 103901,
    "zip_code": 10110,
    "name_th": "คลองเตยเหนือ",
    "name_en": "Khlong Toei Nuea",
    "latitude": 13.653,
    "longitude": 100.564,
    "DistrictId": 39
  },
  {
    "id": 103902,
    "zip_code": 10110,
    "name_th": "คลองตันเหนือ",
    "name_en": "Khlong Tan Nuea",
    "latitude": 13.53,
    "longitude": 100.494,
    "DistrictId": 39
  },
  {
    "id": 103903,
    "zip_code": 10110,
    "name_th": "พระโขนงเหนือ",
    "name_en": "Phra Khanong Nuea",
    "latitude": 13.571,
    "longitude": 100.476,
    "DistrictId": 39
  },
  {
    "id": 104001,
    "zip_code": 10160,
    "name_th": "บางแค",
    "name_en": "Bang Khae",
    "latitude": 13.539,
    "longitude": 100.559,
    "DistrictId": 40
  },
  {
    "id": 104002,
    "zip_code": 10160,
    "name_th": "บางแคเหนือ",
    "name_en": "Bang Khae Nuea",
    "latitude": 13.606,
    "longitude": 100.567,
    "DistrictId": 40
  },
  {
    "id": 104003,
    "zip_code": 10160,
    "name_th": "บางไผ่",
    "name_en": "Bang Phai",
    "latitude": 13.588,
    "longitude": 100.541,
    "DistrictId": 40
  },
  {
    "id": 104004,
    "zip_code": 10160,
    "name_th": "หลักสอง",
    "name_en": "Lak Song",
    "latitude": 13.6,
    "longitude": 100.815,
    "DistrictId": 40
  },
  {
    "id": 104101,
    "zip_code": 10210,
    "name_th": "ทุ่งสองห้อง",
    "name_en": "Thung Song Hong",
    "latitude": 13.689,
    "longitude": 100.799,
    "DistrictId": 41
  },
  {
    "id": 104102,
    "zip_code": 10210,
    "name_th": "ตลาดบางเขน",
    "name_en": "Talat Bang Khen",
    "latitude": 13.641,
    "longitude": 100.803,
    "DistrictId": 41
  },
  {
    "id": 104201,
    "zip_code": 10220,
    "name_th": "สายไหม",
    "name_en": "Sai Mai",
    "latitude": 13.842,
    "longitude": 100.494,
    "DistrictId": 42
  },
  {
    "id": 104202,
    "zip_code": 10220,
    "name_th": "ออเงิน",
    "name_en": "O Ngoen",
    "latitude": 13.85,
    "longitude": 100.509,
    "DistrictId": 42
  },
  {
    "id": 104203,
    "zip_code": 10220,
    "name_th": "คลองถนน",
    "name_en": "Khlong Thanon",
    "latitude": 13.835,
    "longitude": 100.516,
    "DistrictId": 42
  },
  {
    "id": 104301,
    "zip_code": 10230,
    "name_th": "คันนายาว",
    "name_en": "Khan Na Yao",
    "latitude": 13.869,
    "longitude": 100.491,
    "DistrictId": 43
  },
  {
    "id": 104401,
    "zip_code": 10240,
    "name_th": "สะพานสูง",
    "name_en": "Sapan Sung",
    "latitude": 13.884,
    "longitude": 100.501,
    "DistrictId": 44
  },
  {
    "id": 104501,
    "zip_code": 10310,
    "name_th": "วังทองหลาง",
    "name_en": "Wang Thonglang",
    "latitude": 13.823,
    "longitude": 100.492,
    "DistrictId": 45
  },
  {
    "id": 104601,
    "zip_code": 10510,
    "name_th": "สามวาตะวันตก",
    "name_en": "Sam Wa Tawantok",
    "latitude": 13.841,
    "longitude": 100.475,
    "DistrictId": 46
  },
  {
    "id": 104602,
    "zip_code": 10510,
    "name_th": "สามวาตะวันออก",
    "name_en": "Sam Wa Tawan-ok",
    "latitude": 13.835,
    "longitude": 100.438,
    "DistrictId": 46
  },
  {
    "id": 104603,
    "zip_code": 10510,
    "name_th": "บางชัน",
    "name_en": "Bang Chan",
    "latitude": 13.87,
    "longitude": 100.472,
    "DistrictId": 46
  },
  {
    "id": 104604,
    "zip_code": 10510,
    "name_th": "ทรายกองดิน",
    "name_en": "Sai Kong Din",
    "latitude": 13.859,
    "longitude": 100.464,
    "DistrictId": 46
  },
  {
    "id": 104605,
    "zip_code": 10510,
    "name_th": "ทรายกองดินใต้",
    "name_en": "Sai Kong Din Tai",
    "latitude": 13.802,
    "longitude": 100.476,
    "DistrictId": 46
  },
  {
    "id": 104701,
    "zip_code": 10260,
    "name_th": "บางนา",
    "name_en": "Bang Na",
    "latitude": 13.809,
    "longitude": 100.499,
    "DistrictId": 47
  },
  {
    "id": 104801,
    "zip_code": 10170,
    "name_th": "ทวีวัฒนา",
    "name_en": "Thawi Watthana",
    "latitude": 13.818,
    "longitude": 100.479,
    "DistrictId": 48
  },
  {
    "id": 104802,
    "zip_code": 10170,
    "name_th": "ศาลาธรรมสพน์",
    "name_en": "Sala Thammasop",
    "latitude": 13.811,
    "longitude": 100.453,
    "DistrictId": 48
  },
  {
    "id": 104901,
    "zip_code": 10140,
    "name_th": "บางมด",
    "name_en": "Bang Mot",
    "latitude": 13.821,
    "longitude": 100.444,
    "DistrictId": 49
  },
  {
    "id": 104902,
    "zip_code": 10140,
    "name_th": "ทุ่งครุ",
    "name_en": "Thung Khru",
    "latitude": 13.822,
    "longitude": 100.417,
    "DistrictId": 49
  },
  {
    "id": 105001,
    "zip_code": 10150,
    "name_th": "บางบอน",
    "name_en": "Bang Bon",
    "latitude": 13.806,
    "longitude": 100.434,
    "DistrictId": 50
  },
  {
    "id": 110101,
    "zip_code": 10270,
    "name_th": "ปากน้ำ",
    "name_en": "Pak Nam",
    "latitude": 13.814,
    "longitude": 100.402,
    "DistrictId": 52
  },
  {
    "id": 110102,
    "zip_code": 10270,
    "name_th": "สำโรงเหนือ",
    "name_en": "Samrong Nuea",
    "latitude": 13.81,
    "longitude": 100.358,
    "DistrictId": 52
  },
  {
    "id": 110103,
    "zip_code": 10270,
    "name_th": "บางเมือง",
    "name_en": "Bang Mueang",
    "latitude": 13.838,
    "longitude": 100.406,
    "DistrictId": 52
  },
  {
    "id": 110104,
    "zip_code": 10280,
    "name_th": "ท้ายบ้าน",
    "name_en": "Thai Ban",
    "latitude": 13.868,
    "longitude": 100.381,
    "DistrictId": 52
  },
  {
    "id": 110105,
    "zip_code": 0,
    "name_th": "*นาเกลือ",
    "name_en": "*Na Klua",
    "latitude": 13.854,
    "longitude": 100.434,
    "DistrictId": 52
  },
  {
    "id": 110106,
    "zip_code": 0,
    "name_th": "*แหลมฟ้าผ่า",
    "name_en": "*Laem Khapa",
    "latitude": 13.875,
    "longitude": 100.404,
    "DistrictId": 52
  },
  {
    "id": 110107,
    "zip_code": 0,
    "name_th": "*ในคลองบางปลากด",
    "name_en": "*Nai Klong Pla Kod",
    "latitude": 13.837,
    "longitude": 100.375,
    "DistrictId": 52
  },
  {
    "id": 110108,
    "zip_code": 10280,
    "name_th": "บางปูใหม่",
    "name_en": "Bang Pu Mai",
    "latitude": 13.861,
    "longitude": 100.333,
    "DistrictId": 52
  },
  {
    "id": 110109,
    "zip_code": 0,
    "name_th": "*ปากคลองบางปลากด",
    "name_en": "*Pak Klong Pa Kod",
    "latitude": 13.914,
    "longitude": 100.422,
    "DistrictId": 52
  },
  {
    "id": 110110,
    "zip_code": 10280,
    "name_th": "แพรกษา",
    "name_en": "Phraek Sa",
    "latitude": 13.944,
    "longitude": 100.39,
    "DistrictId": 52
  },
  {
    "id": 110111,
    "zip_code": 10270,
    "name_th": "บางโปรง",
    "name_en": "Bang Prong",
    "latitude": 13.878,
    "longitude": 100.438,
    "DistrictId": 52
  },
  {
    "id": 110112,
    "zip_code": 10270,
    "name_th": "บางปู",
    "name_en": "Bang Pu",
    "latitude": 13.907,
    "longitude": 100.351,
    "DistrictId": 52
  },
  {
    "id": 110113,
    "zip_code": 10270,
    "name_th": "บางด้วน",
    "name_en": "Bang Duan",
    "latitude": 13.964,
    "longitude": 100.401,
    "DistrictId": 52
  },
  {
    "id": 110114,
    "zip_code": 10270,
    "name_th": "บางเมืองใหม่",
    "name_en": "Bang Mueang Mai",
    "latitude": 13.97,
    "longitude": 100.416,
    "DistrictId": 52
  },
  {
    "id": 110115,
    "zip_code": 10270,
    "name_th": "เทพารักษ์",
    "name_en": "Thepharak",
    "latitude": 13.934,
    "longitude": 100.366,
    "DistrictId": 52
  },
  {
    "id": 110116,
    "zip_code": 10280,
    "name_th": "ท้ายบ้านใหม่",
    "name_en": "Thai Ban Mai",
    "latitude": 13.894,
    "longitude": 100.41,
    "DistrictId": 52
  },
  {
    "id": 110117,
    "zip_code": 10280,
    "name_th": "แพรกษาใหม่",
    "name_en": "Phraek Sa Mai",
    "latitude": 13.976,
    "longitude": 100.344,
    "DistrictId": 52
  },
  {
    "id": 110194,
    "zip_code": 0,
    "name_th": "*บางปูเก่า",
    "name_en": "*Bang Poo",
    "latitude": 14.088,
    "longitude": 100.329,
    "DistrictId": 52
  },
  {
    "id": 110195,
    "zip_code": 0,
    "name_th": "*ในคลองบางปลากด",
    "name_en": "*Nai Klong Pla Kod",
    "latitude": 13.906,
    "longitude": 100.322,
    "DistrictId": 52
  },
  {
    "id": 110196,
    "zip_code": 0,
    "name_th": "*ปากคลองบางปลากด",
    "name_en": "*Pak Klong Pa Kod",
    "latitude": 14.085,
    "longitude": 100.292,
    "DistrictId": 52
  },
  {
    "id": 110197,
    "zip_code": 0,
    "name_th": "*แหลมฟ้าผ่า",
    "name_en": "*Laem Khapa",
    "latitude": 14.005,
    "longitude": 100.287,
    "DistrictId": 52
  },
  {
    "id": 110198,
    "zip_code": 0,
    "name_th": "*บ้านคลองสวน",
    "name_en": "*Ban Klong Suan",
    "latitude": 14.004,
    "longitude": 100.306,
    "DistrictId": 52
  },
  {
    "id": 110199,
    "zip_code": 0,
    "name_th": "*นาเกลือ",
    "name_en": "*Na Klua",
    "latitude": 13.942,
    "longitude": 100.312,
    "DistrictId": 52
  },
  {
    "id": 110201,
    "zip_code": 10560,
    "name_th": "บางบ่อ",
    "name_en": "Bang Bo",
    "latitude": 13.912,
    "longitude": 100.506,
    "DistrictId": 53
  },
  {
    "id": 110202,
    "zip_code": 10560,
    "name_th": "บ้านระกาศ",
    "name_en": "Ban Rakat",
    "latitude": 13.896,
    "longitude": 100.521,
    "DistrictId": 53
  },
  {
    "id": 110203,
    "zip_code": 10560,
    "name_th": "บางพลีน้อย",
    "name_en": "Bang Phli Noi",
    "latitude": 13.93,
    "longitude": 100.546,
    "DistrictId": 53
  },
  {
    "id": 110204,
    "zip_code": 10560,
    "name_th": "บางเพรียง",
    "name_en": "Bang Phriang",
    "latitude": 13.927,
    "longitude": 100.516,
    "DistrictId": 53
  },
  {
    "id": 110205,
    "zip_code": 10550,
    "name_th": "คลองด่าน",
    "name_en": "Khlong Dan",
    "latitude": 13.931,
    "longitude": 100.492,
    "DistrictId": 53
  },
  {
    "id": 110206,
    "zip_code": 10560,
    "name_th": "คลองสวน",
    "name_en": "Khlong Suan",
    "latitude": 13.93,
    "longitude": 100.479,
    "DistrictId": 53
  },
  {
    "id": 110207,
    "zip_code": 10560,
    "name_th": "เปร็ง",
    "name_en": "Preng",
    "latitude": 13.894,
    "longitude": 100.48,
    "DistrictId": 53
  },
  {
    "id": 110208,
    "zip_code": 10560,
    "name_th": "คลองนิยมยาตรา",
    "name_en": "Khlong Niyom Yattra",
    "latitude": 13.91,
    "longitude": 100.472,
    "DistrictId": 53
  },
  {
    "id": 110209,
    "zip_code": 0,
    "name_th": "คลองนิยม*",
    "name_en": "Klong Niyom*",
    "latitude": 13.909,
    "longitude": 100.453,
    "DistrictId": 53
  },
  {
    "id": 110301,
    "zip_code": 10540,
    "name_th": "บางพลีใหญ่",
    "name_en": "Bang Phli Yai",
    "latitude": 13.959,
    "longitude": 100.45,
    "DistrictId": 54
  },
  {
    "id": 110302,
    "zip_code": 10540,
    "name_th": "บางแก้ว",
    "name_en": "Bang Kaeo",
    "latitude": 13.929,
    "longitude": 100.458,
    "DistrictId": 54
  },
  {
    "id": 110303,
    "zip_code": 10540,
    "name_th": "บางปลา",
    "name_en": "Bang Pla",
    "latitude": 13.902,
    "longitude": 100.55,
    "DistrictId": 54
  },
  {
    "id": 110304,
    "zip_code": 10540,
    "name_th": "บางโฉลง",
    "name_en": "Bang Chalong",
    "latitude": 14.012,
    "longitude": 100.528,
    "DistrictId": 54
  },
  {
    "id": 110305,
    "zip_code": 0,
    "name_th": "*บางเสาธง",
    "name_en": "*Bang Sao Thong",
    "latitude": 13.963,
    "longitude": 100.553,
    "DistrictId": 54
  },
  {
    "id": 110306,
    "zip_code": 0,
    "name_th": "*ศรีษะจรเข้ใหญ่",
    "name_en": "*Srisa Jorrakae Yai",
    "latitude": 14.001,
    "longitude": 100.558,
    "DistrictId": 54
  },
  {
    "id": 110307,
    "zip_code": 0,
    "name_th": "*ศรีษะจรเข้น้อย",
    "name_en": "*Srisa Jorrakae Noi",
    "latitude": 14.029,
    "longitude": 100.507,
    "DistrictId": 54
  },
  {
    "id": 110308,
    "zip_code": 10540,
    "name_th": "ราชาเทวะ",
    "name_en": "Racha Thewa",
    "latitude": 14.031,
    "longitude": 100.552,
    "DistrictId": 54
  },
  {
    "id": 110309,
    "zip_code": 10540,
    "name_th": "หนองปรือ",
    "name_en": "Nong Prue",
    "latitude": 13.967,
    "longitude": 100.523,
    "DistrictId": 54
  },
  {
    "id": 110401,
    "zip_code": 10130,
    "name_th": "ตลาด",
    "name_en": "Talat",
    "latitude": 13.963,
    "longitude": 100.495,
    "DistrictId": 55
  },
  {
    "id": 110402,
    "zip_code": 10130,
    "name_th": "บางพึ่ง",
    "name_en": "Bang Phueng",
    "latitude": 14.007,
    "longitude": 100.509,
    "DistrictId": 55
  },
  {
    "id": 110403,
    "zip_code": 10130,
    "name_th": "บางจาก",
    "name_en": "Bang Chak",
    "latitude": 13.99,
    "longitude": 100.487,
    "DistrictId": 55
  },
  {
    "id": 110404,
    "zip_code": 10130,
    "name_th": "บางครุ",
    "name_en": "Bang Khru",
    "latitude": 14.035,
    "longitude": 100.572,
    "DistrictId": 55
  },
  {
    "id": 110405,
    "zip_code": 10130,
    "name_th": "บางหญ้าแพรก",
    "name_en": "Bang Ya Phraek",
    "latitude": 13.988,
    "longitude": 100.594,
    "DistrictId": 55
  },
  {
    "id": 110406,
    "zip_code": 10130,
    "name_th": "บางหัวเสือ",
    "name_en": "Bang Hua Suea",
    "latitude": 13.983,
    "longitude": 100.537,
    "DistrictId": 55
  },
  {
    "id": 110407,
    "zip_code": 10130,
    "name_th": "สำโรงใต้",
    "name_en": "Samrong Tai",
    "latitude": 14.018,
    "longitude": 100.568,
    "DistrictId": 55
  },
  {
    "id": 110408,
    "zip_code": 10130,
    "name_th": "บางยอ",
    "name_en": "Bang Yo",
    "latitude": 13.963,
    "longitude": 100.59,
    "DistrictId": 55
  },
  {
    "id": 110409,
    "zip_code": 10130,
    "name_th": "บางกะเจ้า",
    "name_en": "Bang Kachao",
    "latitude": 14.066,
    "longitude": 100.607,
    "DistrictId": 55
  },
  {
    "id": 110410,
    "zip_code": 10130,
    "name_th": "บางน้ำผึ้ง",
    "name_en": "Bang Namphueng",
    "latitude": 14.079,
    "longitude": 100.642,
    "DistrictId": 55
  },
  {
    "id": 110411,
    "zip_code": 10130,
    "name_th": "บางกระสอบ",
    "name_en": "Bang Krasop",
    "latitude": 14.087,
    "longitude": 100.664,
    "DistrictId": 55
  },
  {
    "id": 110412,
    "zip_code": 10130,
    "name_th": "บางกอบัว",
    "name_en": "Bang Ko Bua",
    "latitude": 14.097,
    "longitude": 100.687,
    "DistrictId": 55
  },
  {
    "id": 110413,
    "zip_code": 10130,
    "name_th": "ทรงคนอง",
    "name_en": "Song Khanong",
    "latitude": 14.106,
    "longitude": 100.71,
    "DistrictId": 55
  },
  {
    "id": 110414,
    "zip_code": 10130,
    "name_th": "สำโรง",
    "name_en": "Samrong",
    "latitude": 14.117,
    "longitude": 100.733,
    "DistrictId": 55
  },
  {
    "id": 110415,
    "zip_code": 10130,
    "name_th": "สำโรงกลาง",
    "name_en": "Samrong Klang",
    "latitude": 14.125,
    "longitude": 100.75,
    "DistrictId": 55
  },
  {
    "id": 110501,
    "zip_code": 10290,
    "name_th": "นาเกลือ",
    "name_en": "Na Kluea",
    "latitude": 13.987,
    "longitude": 100.632,
    "DistrictId": 56
  },
  {
    "id": 110502,
    "zip_code": 10290,
    "name_th": "บ้านคลองสวน",
    "name_en": "Ban Khlong Suan",
    "latitude": 13.999,
    "longitude": 100.687,
    "DistrictId": 56
  },
  {
    "id": 110503,
    "zip_code": 10290,
    "name_th": "แหลมฟ้าผ่า",
    "name_en": "Laem Fa Pha",
    "latitude": 14.018,
    "longitude": 100.731,
    "DistrictId": 56
  },
  {
    "id": 110504,
    "zip_code": 10290,
    "name_th": "ปากคลองบางปลากด",
    "name_en": "Pak Klong Bang Pla Kot",
    "latitude": 14.036,
    "longitude": 100.779,
    "DistrictId": 56
  },
  {
    "id": 110505,
    "zip_code": 10290,
    "name_th": "ในคลองบางปลากด",
    "name_en": "Nai Khlong Bang Pla Kot",
    "latitude": 14.052,
    "longitude": 100.824,
    "DistrictId": 56
  },
  {
    "id": 110601,
    "zip_code": 10540,
    "name_th": "บางเสาธง",
    "name_en": "Bang Sao Thong",
    "latitude": 14.071,
    "longitude": 100.88,
    "DistrictId": 57
  },
  {
    "id": 110602,
    "zip_code": 10540,
    "name_th": "ศีรษะจรเข้น้อย",
    "name_en": "Sisa Chorakhe Noi",
    "latitude": 14.112,
    "longitude": 100.824,
    "DistrictId": 57
  },
  {
    "id": 110603,
    "zip_code": 10540,
    "name_th": "ศีรษะจรเข้ใหญ่",
    "name_en": "Sisa Chorakhe Yai",
    "latitude": 14.087,
    "longitude": 100.778,
    "DistrictId": 57
  },
  {
    "id": 120101,
    "zip_code": 11000,
    "name_th": "สวนใหญ่",
    "name_en": "Suan Yai",
    "latitude": 14.2,
    "longitude": 100.824,
    "DistrictId": 58
  },
  {
    "id": 120102,
    "zip_code": 11000,
    "name_th": "ตลาดขวัญ",
    "name_en": "Talat Khwan",
    "latitude": 14.172,
    "longitude": 100.778,
    "DistrictId": 58
  },
  {
    "id": 120103,
    "zip_code": 11000,
    "name_th": "บางเขน",
    "name_en": "Bang Khen",
    "latitude": 14.13,
    "longitude": 100.881,
    "DistrictId": 58
  },
  {
    "id": 120104,
    "zip_code": 11000,
    "name_th": "บางกระสอ",
    "name_en": "Bang Kraso",
    "latitude": 14.244,
    "longitude": 100.928,
    "DistrictId": 58
  },
  {
    "id": 120105,
    "zip_code": 11000,
    "name_th": "ท่าทราย",
    "name_en": "Tha Sai",
    "latitude": 14.223,
    "longitude": 100.866,
    "DistrictId": 58
  },
  {
    "id": 120106,
    "zip_code": 11000,
    "name_th": "บางไผ่",
    "name_en": "Bang Phai",
    "latitude": 14.059,
    "longitude": 100.396,
    "DistrictId": 58
  },
  {
    "id": 120107,
    "zip_code": 11000,
    "name_th": "บางศรีเมือง",
    "name_en": "Bang Si Mueang",
    "latitude": 14.006,
    "longitude": 100.41,
    "DistrictId": 58
  },
  {
    "id": 120108,
    "zip_code": 11000,
    "name_th": "บางกร่าง",
    "name_en": "Bang Krang",
    "latitude": 14.047,
    "longitude": 100.467,
    "DistrictId": 58
  },
  {
    "id": 120109,
    "zip_code": 11000,
    "name_th": "ไทรม้า",
    "name_en": "Sai Ma",
    "latitude": 14.068,
    "longitude": 100.437,
    "DistrictId": 58
  },
  {
    "id": 120110,
    "zip_code": 11000,
    "name_th": "บางรักน้อย",
    "name_en": "Bang Rak Noi",
    "latitude": 13.99,
    "longitude": 100.449,
    "DistrictId": 58
  },
  {
    "id": 120201,
    "zip_code": 11130,
    "name_th": "วัดชลอ",
    "name_en": "Wat Chalo",
    "latitude": 14.102,
    "longitude": 100.383,
    "DistrictId": 59
  },
  {
    "id": 120202,
    "zip_code": 11130,
    "name_th": "บางกรวย",
    "name_en": "Bang Kruai",
    "latitude": 14.034,
    "longitude": 100.359,
    "DistrictId": 59
  },
  {
    "id": 120203,
    "zip_code": 11130,
    "name_th": "บางสีทอง",
    "name_en": "Bang Si Thong",
    "latitude": 13.955,
    "longitude": 100.641,
    "DistrictId": 59
  },
  {
    "id": 120204,
    "zip_code": 11130,
    "name_th": "บางขนุน",
    "name_en": "Bang Khanun",
    "latitude": 13.958,
    "longitude": 100.685,
    "DistrictId": 59
  },
  {
    "id": 120205,
    "zip_code": 11130,
    "name_th": "บางขุนกอง",
    "name_en": "Bang Khun Kong",
    "latitude": 13.961,
    "longitude": 100.731,
    "DistrictId": 59
  },
  {
    "id": 120206,
    "zip_code": 11130,
    "name_th": "บางคูเวียง",
    "name_en": "Bang Khu Wiang",
    "latitude": 13.972,
    "longitude": 100.774,
    "DistrictId": 59
  },
  {
    "id": 120207,
    "zip_code": 11130,
    "name_th": "มหาสวัสดิ์",
    "name_en": "Maha Sawat",
    "latitude": 13.984,
    "longitude": 100.82,
    "DistrictId": 59
  },
  {
    "id": 120208,
    "zip_code": 11130,
    "name_th": "ปลายบาง",
    "name_en": "Plai Bang",
    "latitude": 13.973,
    "longitude": 100.861,
    "DistrictId": 59
  },
  {
    "id": 120209,
    "zip_code": 11130,
    "name_th": "ศาลากลาง",
    "name_en": "Sala Klang",
    "latitude": 14.029,
    "longitude": 100.862,
    "DistrictId": 59
  },
  {
    "id": 120301,
    "zip_code": 11140,
    "name_th": "บางม่วง",
    "name_en": "Bang Muang",
    "latitude": 13.975,
    "longitude": 100.896,
    "DistrictId": 60
  },
  {
    "id": 120302,
    "zip_code": 11140,
    "name_th": "บางแม่นาง",
    "name_en": "Bang Mae Nang",
    "latitude": 14.062,
    "longitude": 100.504,
    "DistrictId": 60
  },
  {
    "id": 120303,
    "zip_code": 11140,
    "name_th": "บางเลน",
    "name_en": "Bang Len",
    "latitude": 14.097,
    "longitude": 100.478,
    "DistrictId": 60
  },
  {
    "id": 120304,
    "zip_code": 11140,
    "name_th": "เสาธงหิน",
    "name_en": "Sao Thong Hin",
    "latitude": 14.052,
    "longitude": 100.529,
    "DistrictId": 60
  },
  {
    "id": 120305,
    "zip_code": 11140,
    "name_th": "บางใหญ่",
    "name_en": "Bang Yai",
    "latitude": 14.043,
    "longitude": 100.544,
    "DistrictId": 60
  },
  {
    "id": 120306,
    "zip_code": 11140,
    "name_th": "บ้านใหม่",
    "name_en": "Ban Mai",
    "latitude": 14.042,
    "longitude": 100.515,
    "DistrictId": 60
  },
  {
    "id": 120401,
    "zip_code": 11110,
    "name_th": "โสนลอย",
    "name_en": "Sano Loi",
    "latitude": 14.057,
    "longitude": 100.574,
    "DistrictId": 61
  },
  {
    "id": 120402,
    "zip_code": 11110,
    "name_th": "บางบัวทอง",
    "name_en": "Bang Bua Thong",
    "latitude": 14.067,
    "longitude": 100.546,
    "DistrictId": 61
  },
  {
    "id": 120403,
    "zip_code": 11110,
    "name_th": "บางรักใหญ่",
    "name_en": "Bang Rak Yai",
    "latitude": 14.084,
    "longitude": 100.539,
    "DistrictId": 61
  },
  {
    "id": 120404,
    "zip_code": 11110,
    "name_th": "บางคูรัด",
    "name_en": "Bang Khu Rat",
    "latitude": 14.105,
    "longitude": 100.567,
    "DistrictId": 61
  },
  {
    "id": 120405,
    "zip_code": 11110,
    "name_th": "ละหาร",
    "name_en": "Lahan",
    "latitude": 14.103,
    "longitude": 100.538,
    "DistrictId": 61
  },
  {
    "id": 120406,
    "zip_code": 11110,
    "name_th": "ลำโพ",
    "name_en": "Lam Pho",
    "latitude": 14.105,
    "longitude": 100.496,
    "DistrictId": 61
  },
  {
    "id": 120407,
    "zip_code": 11110,
    "name_th": "พิมลราช",
    "name_en": "Phimon Rat",
    "latitude": 14.349,
    "longitude": 100.551,
    "DistrictId": 61
  },
  {
    "id": 120408,
    "zip_code": 11110,
    "name_th": "บางรักพัฒนา",
    "name_en": "Bang Rak Phatthana",
    "latitude": 14.341,
    "longitude": 100.581,
    "DistrictId": 61
  },
  {
    "id": 120501,
    "zip_code": 11150,
    "name_th": "ไทรน้อย",
    "name_en": "Sai Noi",
    "latitude": 14.354,
    "longitude": 100.578,
    "DistrictId": 62
  },
  {
    "id": 120502,
    "zip_code": 11150,
    "name_th": "ราษฎร์นิยม",
    "name_en": "Rat Niyom",
    "latitude": 14.368,
    "longitude": 100.578,
    "DistrictId": 62
  },
  {
    "id": 120503,
    "zip_code": 11150,
    "name_th": "หนองเพรางาย",
    "name_en": "Nong Phrao Ngai",
    "latitude": 14.361,
    "longitude": 100.552,
    "DistrictId": 62
  },
  {
    "id": 120504,
    "zip_code": 11150,
    "name_th": "ไทรใหญ่",
    "name_en": "Sai Yai",
    "latitude": 14.356,
    "longitude": 100.589,
    "DistrictId": 62
  },
  {
    "id": 120505,
    "zip_code": 11150,
    "name_th": "ขุนศรี",
    "name_en": "Khun Si",
    "latitude": 14.31,
    "longitude": 100.532,
    "DistrictId": 62
  },
  {
    "id": 120506,
    "zip_code": 11150,
    "name_th": "คลองขวาง",
    "name_en": "Khlong Khwang",
    "latitude": 14.365,
    "longitude": 100.542,
    "DistrictId": 62
  },
  {
    "id": 120507,
    "zip_code": 11150,
    "name_th": "ทวีวัฒนา",
    "name_en": "Thawi Watthana",
    "latitude": 14.34,
    "longitude": 100.57,
    "DistrictId": 62
  },
  {
    "id": 120601,
    "zip_code": 11120,
    "name_th": "ปากเกร็ด",
    "name_en": "Pak Kret",
    "latitude": 14.391,
    "longitude": 100.558,
    "DistrictId": 63
  },
  {
    "id": 120602,
    "zip_code": 11120,
    "name_th": "บางตลาด",
    "name_en": "Bang Talat",
    "latitude": 14.331,
    "longitude": 100.554,
    "DistrictId": 63
  },
  {
    "id": 120603,
    "zip_code": 11120,
    "name_th": "บ้านใหม่",
    "name_en": "Ban Mai",
    "latitude": 14.39,
    "longitude": 100.539,
    "DistrictId": 63
  },
  {
    "id": 120604,
    "zip_code": 11120,
    "name_th": "บางพูด",
    "name_en": "Bang Phut",
    "latitude": 14.371,
    "longitude": 100.6,
    "DistrictId": 63
  },
  {
    "id": 120605,
    "zip_code": 11120,
    "name_th": "บางตะไนย์",
    "name_en": "Bang Tanai",
    "latitude": 14.376,
    "longitude": 100.548,
    "DistrictId": 63
  },
  {
    "id": 120606,
    "zip_code": 11120,
    "name_th": "คลองพระอุดม",
    "name_en": "Khlong Phra Udom",
    "latitude": 14.39,
    "longitude": 100.521,
    "DistrictId": 63
  },
  {
    "id": 120607,
    "zip_code": 11120,
    "name_th": "ท่าอิฐ",
    "name_en": "Tha It",
    "latitude": 14.389,
    "longitude": 100.582,
    "DistrictId": 63
  },
  {
    "id": 120608,
    "zip_code": 11120,
    "name_th": "เกาะเกร็ด",
    "name_en": "Ko Kret",
    "latitude": 14.334,
    "longitude": 100.595,
    "DistrictId": 63
  },
  {
    "id": 120609,
    "zip_code": 11120,
    "name_th": "อ้อมเกร็ด",
    "name_en": "Om Kret",
    "latitude": 14.371,
    "longitude": 100.563,
    "DistrictId": 63
  },
  {
    "id": 120610,
    "zip_code": 11120,
    "name_th": "คลองข่อย",
    "name_en": "Khlong Khoi",
    "latitude": 14.318,
    "longitude": 100.579,
    "DistrictId": 63
  },
  {
    "id": 120611,
    "zip_code": 11120,
    "name_th": "บางพลับ",
    "name_en": "Bang Phlap",
    "latitude": 14.347,
    "longitude": 100.529,
    "DistrictId": 63
  },
  {
    "id": 120612,
    "zip_code": 11120,
    "name_th": "คลองเกลือ",
    "name_en": "Khlong Kluea",
    "latitude": null,
    "longitude": null,
    "DistrictId": 63
  },
  {
    "id": 130101,
    "zip_code": 12000,
    "name_th": "บางปรอก",
    "name_en": "Bang Parok",
    "latitude": 14.566,
    "longitude": 100.719,
    "DistrictId": 66
  },
  {
    "id": 130102,
    "zip_code": 12000,
    "name_th": "บ้านใหม่",
    "name_en": "Ban Mai",
    "latitude": 14.55,
    "longitude": 100.741,
    "DistrictId": 66
  },
  {
    "id": 130103,
    "zip_code": 12000,
    "name_th": "บ้านกลาง",
    "name_en": "Ban Klang",
    "latitude": 14.548,
    "longitude": 100.764,
    "DistrictId": 66
  },
  {
    "id": 130104,
    "zip_code": 12000,
    "name_th": "บ้านฉาง",
    "name_en": "Ban Chang",
    "latitude": 14.567,
    "longitude": 100.698,
    "DistrictId": 66
  },
  {
    "id": 130105,
    "zip_code": 12000,
    "name_th": "บ้านกระแชง",
    "name_en": "Ban Krachaeng",
    "latitude": 14.532,
    "longitude": 100.7,
    "DistrictId": 66
  },
  {
    "id": 130106,
    "zip_code": 12000,
    "name_th": "บางขะแยง",
    "name_en": "Bang Khayaeng",
    "latitude": 14.541,
    "longitude": 100.67,
    "DistrictId": 66
  },
  {
    "id": 130107,
    "zip_code": 12000,
    "name_th": "บางคูวัด",
    "name_en": "Bang Khu Wat",
    "latitude": 14.519,
    "longitude": 100.676,
    "DistrictId": 66
  },
  {
    "id": 130108,
    "zip_code": 12000,
    "name_th": "บางหลวง",
    "name_en": "Bang Luang",
    "latitude": 14.504,
    "longitude": 100.692,
    "DistrictId": 66
  },
  {
    "id": 130109,
    "zip_code": 12000,
    "name_th": "บางเดื่อ",
    "name_en": "Bang Duea",
    "latitude": 14.512,
    "longitude": 100.732,
    "DistrictId": 66
  },
  {
    "id": 130110,
    "zip_code": 12000,
    "name_th": "บางพูด",
    "name_en": "Bang Phut",
    "latitude": 14.543,
    "longitude": 100.717,
    "DistrictId": 66
  },
  {
    "id": 130111,
    "zip_code": 12000,
    "name_th": "บางพูน",
    "name_en": "Bang Phun",
    "latitude": 14.469,
    "longitude": 100.622,
    "DistrictId": 66
  },
  {
    "id": 130112,
    "zip_code": 12000,
    "name_th": "บางกะดี",
    "name_en": "Bang Kadi",
    "latitude": 14.511,
    "longitude": 100.652,
    "DistrictId": 66
  },
  {
    "id": 130113,
    "zip_code": 12000,
    "name_th": "สวนพริกไทย",
    "name_en": "Suan Phrikthai",
    "latitude": 14.406,
    "longitude": 100.603,
    "DistrictId": 66
  },
  {
    "id": 130114,
    "zip_code": 12000,
    "name_th": "หลักหก",
    "name_en": "Lak Hok",
    "latitude": 14.458,
    "longitude": 100.655,
    "DistrictId": 66
  },
  {
    "id": 130201,
    "zip_code": 12120,
    "name_th": "คลองหนึ่ง",
    "name_en": "Khlong Nueng",
    "latitude": 14.44,
    "longitude": 100.62,
    "DistrictId": 67
  },
  {
    "id": 130202,
    "zip_code": 12120,
    "name_th": "คลองสอง",
    "name_en": "Khlong Song",
    "latitude": 14.466,
    "longitude": 100.589,
    "DistrictId": 67
  },
  {
    "id": 130203,
    "zip_code": 12120,
    "name_th": "คลองสาม",
    "name_en": "Khlong Sam",
    "latitude": 14.483,
    "longitude": 100.613,
    "DistrictId": 67
  },
  {
    "id": 130204,
    "zip_code": 12120,
    "name_th": "คลองสี่",
    "name_en": "Khlong Si",
    "latitude": 14.503,
    "longitude": 100.619,
    "DistrictId": 67
  },
  {
    "id": 130205,
    "zip_code": 12120,
    "name_th": "คลองห้า",
    "name_en": "Khlong Ha",
    "latitude": 14.423,
    "longitude": 100.64,
    "DistrictId": 67
  },
  {
    "id": 130206,
    "zip_code": 12120,
    "name_th": "คลองหก",
    "name_en": "Khlong Hok",
    "latitude": 14.424,
    "longitude": 100.604,
    "DistrictId": 67
  },
  {
    "id": 130207,
    "zip_code": 12120,
    "name_th": "คลองเจ็ด",
    "name_en": "Khlong Chet",
    "latitude": 14.489,
    "longitude": 100.675,
    "DistrictId": 67
  },
  {
    "id": 130301,
    "zip_code": 12130,
    "name_th": "ประชาธิปัตย์",
    "name_en": "Prachathipat",
    "latitude": 14.485,
    "longitude": 100.65,
    "DistrictId": 68
  },
  {
    "id": 130302,
    "zip_code": 12130,
    "name_th": "บึงยี่โถ",
    "name_en": "Bueng Yitho",
    "latitude": 14.191,
    "longitude": 100.48,
    "DistrictId": 68
  },
  {
    "id": 130303,
    "zip_code": 12110,
    "name_th": "รังสิต",
    "name_en": "Rangsit",
    "latitude": 14.212,
    "longitude": 100.465,
    "DistrictId": 68
  },
  {
    "id": 130304,
    "zip_code": 12110,
    "name_th": "ลำผักกูด",
    "name_en": "Lam Phak Kut",
    "latitude": 14.213,
    "longitude": 100.522,
    "DistrictId": 68
  },
  {
    "id": 130305,
    "zip_code": 12110,
    "name_th": "บึงสนั่น",
    "name_en": "Bueng Sanan",
    "latitude": 14.232,
    "longitude": 100.507,
    "DistrictId": 68
  },
  {
    "id": 130306,
    "zip_code": 12110,
    "name_th": "บึงน้ำรักษ์",
    "name_en": "Bueng Nam Rak",
    "latitude": 14.315,
    "longitude": 100.462,
    "DistrictId": 68
  },
  {
    "id": 130401,
    "zip_code": 12170,
    "name_th": "บึงบา",
    "name_en": "Bueng Ba",
    "latitude": 14.299,
    "longitude": 100.445,
    "DistrictId": 69
  },
  {
    "id": 130402,
    "zip_code": 12170,
    "name_th": "บึงบอน",
    "name_en": "Bueng Bon",
    "latitude": 14.305,
    "longitude": 100.472,
    "DistrictId": 69
  },
  {
    "id": 130403,
    "zip_code": 12170,
    "name_th": "บึงกาสาม",
    "name_en": "Bueng Ka Sam",
    "latitude": 14.287,
    "longitude": 100.48,
    "DistrictId": 69
  },
  {
    "id": 130404,
    "zip_code": 12170,
    "name_th": "บึงชำอ้อ",
    "name_en": "Bueng Cham O",
    "latitude": 14.278,
    "longitude": 100.453,
    "DistrictId": 69
  },
  {
    "id": 130405,
    "zip_code": 12170,
    "name_th": "หนองสามวัง",
    "name_en": "Nong Sam Wang",
    "latitude": 14.279,
    "longitude": 100.505,
    "DistrictId": 69
  },
  {
    "id": 130406,
    "zip_code": 12170,
    "name_th": "ศาลาครุ",
    "name_en": "Sala Khru",
    "latitude": null,
    "longitude": null,
    "DistrictId": 69
  },
  {
    "id": 130407,
    "zip_code": 12170,
    "name_th": "นพรัตน์",
    "name_en": "Noppharat",
    "latitude": 14.252,
    "longitude": 100.505,
    "DistrictId": 69
  },
  {
    "id": 130501,
    "zip_code": 12140,
    "name_th": "ระแหง",
    "name_en": "Rahaeng",
    "latitude": 14.259,
    "longitude": 100.474,
    "DistrictId": 70
  },
  {
    "id": 130502,
    "zip_code": 12140,
    "name_th": "ลาดหลุมแก้ว",
    "name_en": "Lat Lum Kaeo",
    "latitude": 14.222,
    "longitude": 100.432,
    "DistrictId": 70
  },
  {
    "id": 130503,
    "zip_code": 12140,
    "name_th": "คูบางหลวง",
    "name_en": "Khu Bang Luang",
    "latitude": 14.188,
    "longitude": 100.435,
    "DistrictId": 70
  },
  {
    "id": 130504,
    "zip_code": 12140,
    "name_th": "คูขวาง",
    "name_en": "Khu Khwang",
    "latitude": 14.164,
    "longitude": 100.473,
    "DistrictId": 70
  },
  {
    "id": 130505,
    "zip_code": 12140,
    "name_th": "คลองพระอุดม",
    "name_en": "Khlong Phra Udom",
    "latitude": 14.141,
    "longitude": 100.49,
    "DistrictId": 70
  },
  {
    "id": 130506,
    "zip_code": 12140,
    "name_th": "บ่อเงิน",
    "name_en": "Bo Ngoen",
    "latitude": 14.236,
    "longitude": 100.46,
    "DistrictId": 70
  },
  {
    "id": 130507,
    "zip_code": 12140,
    "name_th": "หน้าไม้",
    "name_en": "Na Mai",
    "latitude": 14.186,
    "longitude": 100.519,
    "DistrictId": 70
  },
  {
    "id": 130601,
    "zip_code": 12130,
    "name_th": "คูคต",
    "name_en": "Khu Khot",
    "latitude": 14.161,
    "longitude": 100.522,
    "DistrictId": 71
  },
  {
    "id": 130602,
    "zip_code": 12150,
    "name_th": "ลาดสวาย",
    "name_en": "Lat Sawai",
    "latitude": null,
    "longitude": null,
    "DistrictId": 71
  },
  {
    "id": 130603,
    "zip_code": 12150,
    "name_th": "บึงคำพร้อย",
    "name_en": "Bueng Kham Phroi",
    "latitude": 14.134,
    "longitude": 100.561,
    "DistrictId": 71
  },
  {
    "id": 130604,
    "zip_code": 12150,
    "name_th": "ลำลูกกา",
    "name_en": "Lam Luk Ka",
    "latitude": 14.123,
    "longitude": 100.492,
    "DistrictId": 71
  },
  {
    "id": 130605,
    "zip_code": 12150,
    "name_th": "บึงทองหลาง",
    "name_en": "Bueng Thonglang",
    "latitude": 14.41,
    "longitude": 100.464,
    "DistrictId": 71
  },
  {
    "id": 130606,
    "zip_code": 12150,
    "name_th": "ลำไทร",
    "name_en": "Lam Sai",
    "latitude": 14.39,
    "longitude": 100.497,
    "DistrictId": 71
  },
  {
    "id": 130607,
    "zip_code": 12150,
    "name_th": "บึงคอไห",
    "name_en": "Bueng Kho Hai",
    "latitude": 14.407,
    "longitude": 100.486,
    "DistrictId": 71
  },
  {
    "id": 130608,
    "zip_code": 12150,
    "name_th": "พืชอุดม",
    "name_en": "Phuet Udom",
    "latitude": 14.363,
    "longitude": 100.486,
    "DistrictId": 71
  },
  {
    "id": 130701,
    "zip_code": 12160,
    "name_th": "บางเตย",
    "name_en": "Bang Toei",
    "latitude": 14.364,
    "longitude": 100.505,
    "DistrictId": 72
  },
  {
    "id": 130702,
    "zip_code": 12160,
    "name_th": "คลองควาย",
    "name_en": "Khlong Khwai",
    "latitude": 14.347,
    "longitude": 100.485,
    "DistrictId": 72
  },
  {
    "id": 130703,
    "zip_code": 12160,
    "name_th": "สามโคก",
    "name_en": "Sam Khok",
    "latitude": 14.347,
    "longitude": 100.457,
    "DistrictId": 72
  },
  {
    "id": 130704,
    "zip_code": 12160,
    "name_th": "กระแชง",
    "name_en": "Krachaeng",
    "latitude": 14.328,
    "longitude": 100.482,
    "DistrictId": 72
  },
  {
    "id": 130705,
    "zip_code": 12160,
    "name_th": "บางโพธิ์เหนือ",
    "name_en": "Bang Pho Nuea",
    "latitude": 14.339,
    "longitude": 100.438,
    "DistrictId": 72
  },
  {
    "id": 130706,
    "zip_code": 12160,
    "name_th": "เชียงรากใหญ่",
    "name_en": "Chiang Rak Yai",
    "latitude": 14.375,
    "longitude": 100.432,
    "DistrictId": 72
  },
  {
    "id": 130707,
    "zip_code": 12160,
    "name_th": "บ้านปทุม",
    "name_en": "Ban Pathum",
    "latitude": 14.388,
    "longitude": 100.424,
    "DistrictId": 72
  },
  {
    "id": 130708,
    "zip_code": 12160,
    "name_th": "บ้านงิ้ว",
    "name_en": "Ban Ngio",
    "latitude": 14.403,
    "longitude": 100.433,
    "DistrictId": 72
  },
  {
    "id": 130709,
    "zip_code": 12160,
    "name_th": "เชียงรากน้อย",
    "name_en": "Chiang Rak Noi",
    "latitude": 14.419,
    "longitude": 100.43,
    "DistrictId": 72
  },
  {
    "id": 130710,
    "zip_code": 12160,
    "name_th": "บางกระบือ",
    "name_en": "Bang Krabue",
    "latitude": 14.436,
    "longitude": 100.439,
    "DistrictId": 72
  },
  {
    "id": 130711,
    "zip_code": 12160,
    "name_th": "ท้ายเกาะ",
    "name_en": "Thai Ko",
    "latitude": 14.429,
    "longitude": 100.461,
    "DistrictId": 72
  },
  {
    "id": 140101,
    "zip_code": 13000,
    "name_th": "ประตูชัย",
    "name_en": "Pratu Chai",
    "latitude": 14.436,
    "longitude": 100.492,
    "DistrictId": 74
  },
  {
    "id": 140102,
    "zip_code": 13000,
    "name_th": "กะมัง",
    "name_en": "Kamang",
    "latitude": 14.241,
    "longitude": 100.598,
    "DistrictId": 74
  },
  {
    "id": 140103,
    "zip_code": 13000,
    "name_th": "หอรัตนไชย",
    "name_en": "Ho Rattanachai",
    "latitude": 14.16,
    "longitude": 100.594,
    "DistrictId": 74
  },
  {
    "id": 140104,
    "zip_code": 13000,
    "name_th": "หัวรอ",
    "name_en": "Hua Ro",
    "latitude": 14.272,
    "longitude": 100.588,
    "DistrictId": 74
  },
  {
    "id": 140105,
    "zip_code": 13000,
    "name_th": "ท่าวาสุกรี",
    "name_en": "Tha Wasukri",
    "latitude": 14.307,
    "longitude": 100.604,
    "DistrictId": 74
  },
  {
    "id": 140106,
    "zip_code": 13000,
    "name_th": "ไผ่ลิง",
    "name_en": "Phai Ling",
    "latitude": 14.189,
    "longitude": 100.565,
    "DistrictId": 74
  },
  {
    "id": 140107,
    "zip_code": 13000,
    "name_th": "ปากกราน",
    "name_en": "Pak Kran",
    "latitude": 14.214,
    "longitude": 100.597,
    "DistrictId": 74
  },
  {
    "id": 140108,
    "zip_code": 13000,
    "name_th": "ภูเขาทอง",
    "name_en": "Phukhao Thong",
    "latitude": 14.258,
    "longitude": 100.616,
    "DistrictId": 74
  },
  {
    "id": 140109,
    "zip_code": 13000,
    "name_th": "สำเภาล่ม",
    "name_en": "Samphao Lom",
    "latitude": 14.26,
    "longitude": 100.568,
    "DistrictId": 74
  },
  {
    "id": 140110,
    "zip_code": 13000,
    "name_th": "สวนพริก",
    "name_en": "Suan Phrik",
    "latitude": 14.288,
    "longitude": 100.544,
    "DistrictId": 74
  },
  {
    "id": 140111,
    "zip_code": 13000,
    "name_th": "คลองตะเคียน",
    "name_en": "Khlong Takhian",
    "latitude": 14.292,
    "longitude": 100.647,
    "DistrictId": 74
  },
  {
    "id": 140112,
    "zip_code": 13000,
    "name_th": "วัดตูม",
    "name_en": "Wat Tum",
    "latitude": 14.206,
    "longitude": 100.539,
    "DistrictId": 74
  },
  {
    "id": 140113,
    "zip_code": 13000,
    "name_th": "หันตรา",
    "name_en": "Hantra",
    "latitude": 14.223,
    "longitude": 100.552,
    "DistrictId": 74
  },
  {
    "id": 140114,
    "zip_code": 13000,
    "name_th": "ลุมพลี",
    "name_en": "Lumphli",
    "latitude": 14.239,
    "longitude": 100.557,
    "DistrictId": 74
  },
  {
    "id": 140115,
    "zip_code": 13000,
    "name_th": "บ้านใหม่",
    "name_en": "Ban Mai",
    "latitude": 14.295,
    "longitude": 100.621,
    "DistrictId": 74
  },
  {
    "id": 140116,
    "zip_code": 13000,
    "name_th": "บ้านเกาะ",
    "name_en": "Ban Ko",
    "latitude": 14.25,
    "longitude": 100.642,
    "DistrictId": 74
  },
  {
    "id": 140117,
    "zip_code": 13000,
    "name_th": "คลองสวนพลู",
    "name_en": "Khlong Suan Phlu",
    "latitude": 14.289,
    "longitude": 100.668,
    "DistrictId": 74
  },
  {
    "id": 140118,
    "zip_code": 13000,
    "name_th": "คลองสระบัว",
    "name_en": "Khlong Sa Bua",
    "latitude": null,
    "longitude": null,
    "DistrictId": 74
  },
  {
    "id": 140119,
    "zip_code": 13000,
    "name_th": "เกาะเรียน",
    "name_en": "Ko Rian",
    "latitude": 14.266,
    "longitude": 100.542,
    "DistrictId": 74
  },
  {
    "id": 140120,
    "zip_code": 13000,
    "name_th": "บ้านป้อม",
    "name_en": "Ban Pom",
    "latitude": 14.458,
    "longitude": 100.558,
    "DistrictId": 74
  },
  {
    "id": 140121,
    "zip_code": 13000,
    "name_th": "บ้านรุน",
    "name_en": "Ban Run",
    "latitude": 14.414,
    "longitude": 100.564,
    "DistrictId": 74
  },
  {
    "id": 140199,
    "zip_code": 0,
    "name_th": "*จำปา",
    "name_en": "*Jam Pa",
    "latitude": 14.436,
    "longitude": 100.576,
    "DistrictId": 74
  },
  {
    "id": 140201,
    "zip_code": 13130,
    "name_th": "ท่าเรือ",
    "name_en": "Tha Ruea",
    "latitude": 14.496,
    "longitude": 100.549,
    "DistrictId": 75
  },
  {
    "id": 140202,
    "zip_code": 13130,
    "name_th": "จำปา",
    "name_en": "Champa",
    "latitude": 14.513,
    "longitude": 100.544,
    "DistrictId": 75
  },
  {
    "id": 140203,
    "zip_code": 13130,
    "name_th": "ท่าหลวง",
    "name_en": "Tha Luang",
    "latitude": 14.5,
    "longitude": 100.577,
    "DistrictId": 75
  },
  {
    "id": 140204,
    "zip_code": 13130,
    "name_th": "บ้านร่อม",
    "name_en": "Ban Rom",
    "latitude": 14.512,
    "longitude": 100.517,
    "DistrictId": 75
  },
  {
    "id": 140205,
    "zip_code": 13130,
    "name_th": "ศาลาลอย",
    "name_en": "Sala Loi",
    "latitude": 14.474,
    "longitude": 100.531,
    "DistrictId": 75
  },
  {
    "id": 140206,
    "zip_code": 13130,
    "name_th": "วังแดง",
    "name_en": "Wang Daeng",
    "latitude": 14.491,
    "longitude": 100.532,
    "DistrictId": 75
  },
  {
    "id": 140207,
    "zip_code": 13130,
    "name_th": "โพธิ์เอน",
    "name_en": "Pho En",
    "latitude": 14.464,
    "longitude": 100.508,
    "DistrictId": 75
  },
  {
    "id": 140208,
    "zip_code": 13130,
    "name_th": "ปากท่า",
    "name_en": "Pak Tha",
    "latitude": 14.492,
    "longitude": 100.51,
    "DistrictId": 75
  },
  {
    "id": 140209,
    "zip_code": 13130,
    "name_th": "หนองขนาก",
    "name_en": "Nong Khanak",
    "latitude": 14.444,
    "longitude": 100.536,
    "DistrictId": 75
  },
  {
    "id": 140210,
    "zip_code": 13130,
    "name_th": "ท่าเจ้าสนุก",
    "name_en": "Tha Chao Sanuk",
    "latitude": 14.449,
    "longitude": 100.521,
    "DistrictId": 75
  },
  {
    "id": 140301,
    "zip_code": 13260,
    "name_th": "นครหลวง",
    "name_en": "Nakhon Luang",
    "latitude": 14.421,
    "longitude": 100.547,
    "DistrictId": 76
  },
  {
    "id": 140302,
    "zip_code": 13260,
    "name_th": "ท่าช้าง",
    "name_en": "Tha Chang",
    "latitude": 14.419,
    "longitude": 100.525,
    "DistrictId": 76
  },
  {
    "id": 140303,
    "zip_code": 13260,
    "name_th": "บ่อโพง",
    "name_en": "Bo Phong",
    "latitude": 14.524,
    "longitude": 100.563,
    "DistrictId": 76
  },
  {
    "id": 140304,
    "zip_code": 13260,
    "name_th": "บ้านชุ้ง",
    "name_en": "Ban Chung",
    "latitude": 14.532,
    "longitude": 100.586,
    "DistrictId": 76
  },
  {
    "id": 140305,
    "zip_code": 13260,
    "name_th": "ปากจั่น",
    "name_en": "Pak Chan",
    "latitude": 14.462,
    "longitude": 100.379,
    "DistrictId": 76
  },
  {
    "id": 140306,
    "zip_code": 13260,
    "name_th": "บางระกำ",
    "name_en": "Bang Rakam",
    "latitude": 14.472,
    "longitude": 100.361,
    "DistrictId": 76
  },
  {
    "id": 140307,
    "zip_code": 13260,
    "name_th": "บางพระครู",
    "name_en": "Bang Phra Khru",
    "latitude": 14.495,
    "longitude": 100.405,
    "DistrictId": 76
  },
  {
    "id": 140308,
    "zip_code": 13260,
    "name_th": "แม่ลา",
    "name_en": "Mae La",
    "latitude": 14.482,
    "longitude": 100.393,
    "DistrictId": 76
  },
  {
    "id": 140309,
    "zip_code": 13260,
    "name_th": "หนองปลิง",
    "name_en": "Nong Pling",
    "latitude": 14.446,
    "longitude": 100.387,
    "DistrictId": 76
  },
  {
    "id": 140310,
    "zip_code": 13260,
    "name_th": "คลองสะแก",
    "name_en": "Khlong Sakae",
    "latitude": 14.416,
    "longitude": 100.388,
    "DistrictId": 76
  },
  {
    "id": 140311,
    "zip_code": 13260,
    "name_th": "สามไถ",
    "name_en": "Sam Thai",
    "latitude": 14.433,
    "longitude": 100.286,
    "DistrictId": 76
  },
  {
    "id": 140312,
    "zip_code": 13260,
    "name_th": "พระนอน",
    "name_en": "Phra Non",
    "latitude": 14.468,
    "longitude": 100.272,
    "DistrictId": 76
  },
  {
    "id": 140401,
    "zip_code": 13190,
    "name_th": "บางไทร",
    "name_en": "Bang Sai",
    "latitude": 14.439,
    "longitude": 100.407,
    "DistrictId": 77
  },
  {
    "id": 140402,
    "zip_code": 13190,
    "name_th": "บางพลี",
    "name_en": "Bang Phli",
    "latitude": 14.419,
    "longitude": 100.318,
    "DistrictId": 77
  },
  {
    "id": 140403,
    "zip_code": 13190,
    "name_th": "สนามชัย",
    "name_en": "Sanam Chai",
    "latitude": 14.5,
    "longitude": 100.388,
    "DistrictId": 77
  },
  {
    "id": 140404,
    "zip_code": 13190,
    "name_th": "บ้านแป้ง",
    "name_en": "Ban Paeng",
    "latitude": 14.447,
    "longitude": 100.34,
    "DistrictId": 77
  },
  {
    "id": 140405,
    "zip_code": 13190,
    "name_th": "หน้าไม้",
    "name_en": "Na Mai",
    "latitude": 14.474,
    "longitude": 100.311,
    "DistrictId": 77
  },
  {
    "id": 140406,
    "zip_code": 13190,
    "name_th": "บางยี่โท",
    "name_en": "Bang Yi Tho",
    "latitude": 14.422,
    "longitude": 100.358,
    "DistrictId": 77
  },
  {
    "id": 140407,
    "zip_code": 13190,
    "name_th": "แคออก",
    "name_en": "Khae Ok",
    "latitude": 14.49,
    "longitude": 100.351,
    "DistrictId": 77
  },
  {
    "id": 140408,
    "zip_code": 13190,
    "name_th": "แคตก",
    "name_en": "Khae Tok",
    "latitude": 14.435,
    "longitude": 100.384,
    "DistrictId": 77
  },
  {
    "id": 140409,
    "zip_code": 13190,
    "name_th": "ช่างเหล็ก",
    "name_en": "Chang Lek",
    "latitude": 14.442,
    "longitude": 100.725,
    "DistrictId": 77
  },
  {
    "id": 140410,
    "zip_code": 13190,
    "name_th": "กระแชง",
    "name_en": "Krachaeng",
    "latitude": 14.428,
    "longitude": 100.75,
    "DistrictId": 77
  },
  {
    "id": 140411,
    "zip_code": 13190,
    "name_th": "บ้านกลึง",
    "name_en": "Ban Klueng",
    "latitude": 14.39,
    "longitude": 100.77,
    "DistrictId": 77
  },
  {
    "id": 140412,
    "zip_code": 13190,
    "name_th": "ช้างน้อย",
    "name_en": "Chang Noi",
    "latitude": 14.457,
    "longitude": 100.751,
    "DistrictId": 77
  },
  {
    "id": 140413,
    "zip_code": 13190,
    "name_th": "ห่อหมก",
    "name_en": "Homok",
    "latitude": 14.478,
    "longitude": 100.739,
    "DistrictId": 77
  },
  {
    "id": 140414,
    "zip_code": 13190,
    "name_th": "ไผ่พระ",
    "name_en": "Phai Phra",
    "latitude": 14.474,
    "longitude": 100.693,
    "DistrictId": 77
  },
  {
    "id": 140415,
    "zip_code": 13190,
    "name_th": "กกแก้วบูรพา",
    "name_en": "Kok Kaeo Burapha",
    "latitude": 14.42,
    "longitude": 100.69,
    "DistrictId": 77
  },
  {
    "id": 140416,
    "zip_code": 13190,
    "name_th": "ไม้ตรา",
    "name_en": "Mai Tra",
    "latitude": 14.44,
    "longitude": 100.675,
    "DistrictId": 77
  },
  {
    "id": 140417,
    "zip_code": 13190,
    "name_th": "บ้านม้า",
    "name_en": "Ban Ma",
    "latitude": 14.193,
    "longitude": 100.319,
    "DistrictId": 77
  },
  {
    "id": 140418,
    "zip_code": 13190,
    "name_th": "บ้านเกาะ",
    "name_en": "Ban Ko",
    "latitude": 14.195,
    "longitude": 100.277,
    "DistrictId": 77
  },
  {
    "id": 140419,
    "zip_code": 13290,
    "name_th": "ราชคราม",
    "name_en": "Ratchakhram",
    "latitude": 14.153,
    "longitude": 100.297,
    "DistrictId": 77
  },
  {
    "id": 140420,
    "zip_code": 13290,
    "name_th": "ช้างใหญ่",
    "name_en": "Chang Yai",
    "latitude": 14.161,
    "longitude": 100.395,
    "DistrictId": 77
  },
  {
    "id": 140421,
    "zip_code": 13290,
    "name_th": "โพแตง",
    "name_en": "Pho Taeng",
    "latitude": 14.132,
    "longitude": 100.423,
    "DistrictId": 77
  },
  {
    "id": 140422,
    "zip_code": 13290,
    "name_th": "เชียงรากน้อย",
    "name_en": "Chiang Rak Noi",
    "latitude": 14.196,
    "longitude": 100.369,
    "DistrictId": 77
  },
  {
    "id": 140423,
    "zip_code": 13190,
    "name_th": "โคกช้าง",
    "name_en": "Khok Chang",
    "latitude": 14.134,
    "longitude": 100.368,
    "DistrictId": 77
  },
  {
    "id": 140501,
    "zip_code": 13250,
    "name_th": "บางบาล",
    "name_en": "Bang Ban",
    "latitude": 14.275,
    "longitude": 100.708,
    "DistrictId": 78
  },
  {
    "id": 140502,
    "zip_code": 13250,
    "name_th": "วัดยม",
    "name_en": "Wat Yom",
    "latitude": 14.241,
    "longitude": 100.674,
    "DistrictId": 78
  },
  {
    "id": 140503,
    "zip_code": 13250,
    "name_th": "ไทรน้อย",
    "name_en": "Sai Noi",
    "latitude": 14.201,
    "longitude": 100.699,
    "DistrictId": 78
  },
  {
    "id": 140504,
    "zip_code": 13250,
    "name_th": "สะพานไทย",
    "name_en": "Saphan Thai",
    "latitude": 14.2,
    "longitude": 100.641,
    "DistrictId": 78
  },
  {
    "id": 140505,
    "zip_code": 13250,
    "name_th": "มหาพราหมณ์",
    "name_en": "Maha Phram",
    "latitude": 14.298,
    "longitude": 100.813,
    "DistrictId": 78
  },
  {
    "id": 140506,
    "zip_code": 13250,
    "name_th": "กบเจา",
    "name_en": "Kop Chao",
    "latitude": 14.166,
    "longitude": 100.632,
    "DistrictId": 78
  },
  {
    "id": 140507,
    "zip_code": 13250,
    "name_th": "บ้านคลัง",
    "name_en": "Ban Khlang",
    "latitude": 14.304,
    "longitude": 100.78,
    "DistrictId": 78
  },
  {
    "id": 140508,
    "zip_code": 13250,
    "name_th": "พระขาว",
    "name_en": "Phra Khao",
    "latitude": 14.249,
    "longitude": 100.8,
    "DistrictId": 78
  },
  {
    "id": 140509,
    "zip_code": 13250,
    "name_th": "น้ำเต้า",
    "name_en": "Namtao",
    "latitude": 14.229,
    "longitude": 100.758,
    "DistrictId": 78
  },
  {
    "id": 140510,
    "zip_code": 13250,
    "name_th": "ทางช้าง",
    "name_en": "Thang Chang",
    "latitude": 14.257,
    "longitude": 100.748,
    "DistrictId": 78
  },
  {
    "id": 140511,
    "zip_code": 13250,
    "name_th": "วัดตะกู",
    "name_en": "Wat Taku",
    "latitude": 14.328,
    "longitude": 100.404,
    "DistrictId": 78
  },
  {
    "id": 140512,
    "zip_code": 13250,
    "name_th": "บางหลวง",
    "name_en": "Bang Luang",
    "latitude": 14.342,
    "longitude": 100.417,
    "DistrictId": 78
  },
  {
    "id": 140513,
    "zip_code": 13250,
    "name_th": "บางหลวงโดด",
    "name_en": "Bang Luang Dot",
    "latitude": 14.303,
    "longitude": 100.378,
    "DistrictId": 78
  },
  {
    "id": 140514,
    "zip_code": 13250,
    "name_th": "บางหัก",
    "name_en": "Bang Hak",
    "latitude": 14.306,
    "longitude": 100.399,
    "DistrictId": 78
  },
  {
    "id": 140515,
    "zip_code": 13250,
    "name_th": "บางชะนี",
    "name_en": "Bang Chani",
    "latitude": 14.292,
    "longitude": 100.424,
    "DistrictId": 78
  },
  {
    "id": 140516,
    "zip_code": 13250,
    "name_th": "บ้านกุ่ม",
    "name_en": "Ban Kum",
    "latitude": 14.376,
    "longitude": 100.402,
    "DistrictId": 78
  },
  {
    "id": 140601,
    "zip_code": 13160,
    "name_th": "บ้านเลน",
    "name_en": "Ban Len",
    "latitude": 14.24,
    "longitude": 100.371,
    "DistrictId": 79
  },
  {
    "id": 140602,
    "zip_code": 13180,
    "name_th": "เชียงรากน้อย",
    "name_en": "Chiang Rak Noi",
    "latitude": 14.351,
    "longitude": 100.394,
    "DistrictId": 79
  },
  {
    "id": 140603,
    "zip_code": 13160,
    "name_th": "บ้านโพ",
    "name_en": "Ban Pho",
    "latitude": 14.351,
    "longitude": 100.366,
    "DistrictId": 79
  },
  {
    "id": 140604,
    "zip_code": 13160,
    "name_th": "บ้านกรด",
    "name_en": "Ban Krot",
    "latitude": 14.39,
    "longitude": 100.383,
    "DistrictId": 79
  },
  {
    "id": 140605,
    "zip_code": 13160,
    "name_th": "บางกระสั้น",
    "name_en": "Bang Krasan",
    "latitude": 14.301,
    "longitude": 100.348,
    "DistrictId": 79
  },
  {
    "id": 140606,
    "zip_code": 13160,
    "name_th": "คลองจิก",
    "name_en": "Khlong Chik",
    "latitude": 14.258,
    "longitude": 100.348,
    "DistrictId": 79
  },
  {
    "id": 140607,
    "zip_code": 13160,
    "name_th": "บ้านหว้า",
    "name_en": "Ban Wa",
    "latitude": 14.24,
    "longitude": 100.406,
    "DistrictId": 79
  },
  {
    "id": 140608,
    "zip_code": 13160,
    "name_th": "วัดยม",
    "name_en": "Wat Yom",
    "latitude": 14.372,
    "longitude": 100.358,
    "DistrictId": 79
  },
  {
    "id": 140609,
    "zip_code": 13160,
    "name_th": "บางประแดง",
    "name_en": "Bang Pradaeng",
    "latitude": 14.24,
    "longitude": 100.306,
    "DistrictId": 79
  },
  {
    "id": 140610,
    "zip_code": 13160,
    "name_th": "สามเรือน",
    "name_en": "Sam Ruean",
    "latitude": 14.278,
    "longitude": 100.401,
    "DistrictId": 79
  },
  {
    "id": 140611,
    "zip_code": 13160,
    "name_th": "เกาะเกิด",
    "name_en": "Ko Koet",
    "latitude": 14.331,
    "longitude": 100.363,
    "DistrictId": 79
  },
  {
    "id": 140612,
    "zip_code": 13160,
    "name_th": "บ้านพลับ",
    "name_en": "Ban Phlap",
    "latitude": 14.314,
    "longitude": 100.286,
    "DistrictId": 79
  },
  {
    "id": 140613,
    "zip_code": 13160,
    "name_th": "บ้านแป้ง",
    "name_en": "Ban Paeng",
    "latitude": 14.313,
    "longitude": 100.326,
    "DistrictId": 79
  },
  {
    "id": 140614,
    "zip_code": 13160,
    "name_th": "คุ้งลาน",
    "name_en": "Khung Lan",
    "latitude": 14.34,
    "longitude": 100.319,
    "DistrictId": 79
  },
  {
    "id": 140615,
    "zip_code": 13160,
    "name_th": "ตลิ่งชัน",
    "name_en": "Taling Chan",
    "latitude": 14.382,
    "longitude": 100.315,
    "DistrictId": 79
  },
  {
    "id": 140616,
    "zip_code": 13170,
    "name_th": "บ้านสร้าง",
    "name_en": "Ban Sang",
    "latitude": 14.236,
    "longitude": 100.258,
    "DistrictId": 79
  },
  {
    "id": 140617,
    "zip_code": 13160,
    "name_th": "ตลาดเกรียบ",
    "name_en": "Talat Kriap",
    "latitude": 14.272,
    "longitude": 100.296,
    "DistrictId": 79
  },
  {
    "id": 140618,
    "zip_code": 13160,
    "name_th": "ขนอนหลวง",
    "name_en": "Khanon Luang",
    "latitude": 14.335,
    "longitude": 100.641,
    "DistrictId": 79
  },
  {
    "id": 140701,
    "zip_code": 13220,
    "name_th": "บางปะหัน",
    "name_en": "Bang Pahan",
    "latitude": 14.322,
    "longitude": 100.68,
    "DistrictId": 80
  },
  {
    "id": 140702,
    "zip_code": 13220,
    "name_th": "ขยาย",
    "name_en": "Khayai",
    "latitude": 14.349,
    "longitude": 100.742,
    "DistrictId": 80
  },
  {
    "id": 140703,
    "zip_code": 13220,
    "name_th": "บางเดื่อ",
    "name_en": "Bang Duea",
    "latitude": 14.372,
    "longitude": 100.712,
    "DistrictId": 80
  },
  {
    "id": 140704,
    "zip_code": 13220,
    "name_th": "เสาธง",
    "name_en": "Sao Thong",
    "latitude": 14.376,
    "longitude": 100.751,
    "DistrictId": 80
  },
  {
    "id": 140705,
    "zip_code": 13220,
    "name_th": "ทางกลาง",
    "name_en": "Thang Klang",
    "latitude": 14.373,
    "longitude": 100.655,
    "DistrictId": 80
  },
  {
    "id": 140706,
    "zip_code": 13220,
    "name_th": "บางเพลิง",
    "name_en": "Bang Phloeng",
    "latitude": 14.392,
    "longitude": 100.689,
    "DistrictId": 80
  },
  {
    "id": 140707,
    "zip_code": 13220,
    "name_th": "หันสัง",
    "name_en": "Hansang",
    "latitude": 14.32,
    "longitude": 100.714,
    "DistrictId": 80
  },
  {
    "id": 140708,
    "zip_code": 13220,
    "name_th": "บางนางร้า",
    "name_en": "Bang Nang Ra",
    "latitude": 14.332,
    "longitude": 100.759,
    "DistrictId": 80
  },
  {
    "id": 140709,
    "zip_code": 13220,
    "name_th": "ตานิม",
    "name_en": "Ta Nim",
    "latitude": 14.355,
    "longitude": 100.622,
    "DistrictId": 80
  },
  {
    "id": 140710,
    "zip_code": 13220,
    "name_th": "ทับน้ำ",
    "name_en": "Thap Nam",
    "latitude": 14.379,
    "longitude": 100.624,
    "DistrictId": 80
  },
  {
    "id": 140711,
    "zip_code": 13220,
    "name_th": "บ้านม้า",
    "name_en": "Ban Ma",
    "latitude": 14.532,
    "longitude": 100.525,
    "DistrictId": 80
  },
  {
    "id": 140712,
    "zip_code": 13220,
    "name_th": "ขวัญเมือง",
    "name_en": "Khwan Mueang",
    "latitude": 14.546,
    "longitude": 100.556,
    "DistrictId": 80
  },
  {
    "id": 140713,
    "zip_code": 13220,
    "name_th": "บ้านลี่",
    "name_en": "Ban Li",
    "latitude": 14.552,
    "longitude": 100.528,
    "DistrictId": 80
  },
  {
    "id": 140714,
    "zip_code": 13220,
    "name_th": "โพธิ์สามต้น",
    "name_en": "Pho Sam Ton",
    "latitude": 14.566,
    "longitude": 100.542,
    "DistrictId": 80
  },
  {
    "id": 140715,
    "zip_code": 13220,
    "name_th": "พุทเลา",
    "name_en": "Phutlao",
    "latitude": 14.576,
    "longitude": 100.581,
    "DistrictId": 80
  },
  {
    "id": 140716,
    "zip_code": 13220,
    "name_th": "ตาลเอน",
    "name_en": "Tan En",
    "latitude": 14.602,
    "longitude": 100.563,
    "DistrictId": 80
  },
  {
    "id": 140717,
    "zip_code": 13220,
    "name_th": "บ้านขล้อ",
    "name_en": "Ban Khlo",
    "latitude": 14.584,
    "longitude": 100.538,
    "DistrictId": 80
  },
  {
    "id": 140801,
    "zip_code": 13120,
    "name_th": "ผักไห่",
    "name_en": "Phak Hai",
    "latitude": 14.608,
    "longitude": 100.544,
    "DistrictId": 81
  },
  {
    "id": 140802,
    "zip_code": 13120,
    "name_th": "อมฤต",
    "name_en": "Ammarit",
    "latitude": 14.606,
    "longitude": 100.51,
    "DistrictId": 81
  },
  {
    "id": 140803,
    "zip_code": 13120,
    "name_th": "บ้านแค",
    "name_en": "Ban Khae",
    "latitude": 14.576,
    "longitude": 100.518,
    "DistrictId": 81
  },
  {
    "id": 140804,
    "zip_code": 13120,
    "name_th": "ลาดน้ำเค็ม",
    "name_en": "Lat Nam Khem",
    "latitude": 14.556,
    "longitude": 100.511,
    "DistrictId": 81
  },
  {
    "id": 140805,
    "zip_code": 13120,
    "name_th": "ตาลาน",
    "name_en": "Ta Lan",
    "latitude": 14.531,
    "longitude": 100.5,
    "DistrictId": 81
  },
  {
    "id": 140806,
    "zip_code": 13120,
    "name_th": "ท่าดินแดง",
    "name_en": "Tha Din Daeng",
    "latitude": 14.64,
    "longitude": 100.585,
    "DistrictId": 81
  },
  {
    "id": 140807,
    "zip_code": 13280,
    "name_th": "ดอนลาน",
    "name_en": "Don Lan",
    "latitude": 14.655,
    "longitude": 100.586,
    "DistrictId": 81
  },
  {
    "id": 140808,
    "zip_code": 13280,
    "name_th": "นาคู",
    "name_en": "Na Khu",
    "latitude": 14.638,
    "longitude": 100.567,
    "DistrictId": 81
  },
  {
    "id": 140809,
    "zip_code": 13120,
    "name_th": "กุฎี",
    "name_en": "Kudi",
    "latitude": 14.627,
    "longitude": 100.553,
    "DistrictId": 81
  },
  {
    "id": 140810,
    "zip_code": 13280,
    "name_th": "ลำตะเคียน",
    "name_en": "Lam Takhian",
    "latitude": 14.646,
    "longitude": 100.519,
    "DistrictId": 81
  },
  {
    "id": 140811,
    "zip_code": 13120,
    "name_th": "โคกช้าง",
    "name_en": "Khok Chang",
    "latitude": 14.592,
    "longitude": 100.453,
    "DistrictId": 81
  },
  {
    "id": 140812,
    "zip_code": 13280,
    "name_th": "จักราช",
    "name_en": "Chakkarat",
    "latitude": 14.588,
    "longitude": 100.459,
    "DistrictId": 81
  },
  {
    "id": 140813,
    "zip_code": 13280,
    "name_th": "หนองน้ำใหญ่",
    "name_en": "Nong Nam Yai",
    "latitude": 14.599,
    "longitude": 100.445,
    "DistrictId": 81
  },
  {
    "id": 140814,
    "zip_code": 13120,
    "name_th": "ลาดชิด",
    "name_en": "Lat Chit",
    "latitude": 14.612,
    "longitude": 100.413,
    "DistrictId": 81
  },
  {
    "id": 140815,
    "zip_code": 13120,
    "name_th": "หน้าโคก",
    "name_en": "Na Khok",
    "latitude": 14.565,
    "longitude": 100.434,
    "DistrictId": 81
  },
  {
    "id": 140816,
    "zip_code": 13120,
    "name_th": "บ้านใหญ่",
    "name_en": "Ban Yai",
    "latitude": 14.619,
    "longitude": 100.478,
    "DistrictId": 81
  },
  {
    "id": 140901,
    "zip_code": 13140,
    "name_th": "ภาชี",
    "name_en": "Phachi",
    "latitude": 14.568,
    "longitude": 100.4,
    "DistrictId": 82
  },
  {
    "id": 140902,
    "zip_code": 13140,
    "name_th": "โคกม่วง",
    "name_en": "Khok Muang",
    "latitude": 14.583,
    "longitude": 100.476,
    "DistrictId": 82
  },
  {
    "id": 140903,
    "zip_code": 13140,
    "name_th": "ระโสม",
    "name_en": "Rasom",
    "latitude": 14.553,
    "longitude": 100.474,
    "DistrictId": 82
  },
  {
    "id": 140904,
    "zip_code": 13140,
    "name_th": "หนองน้ำใส",
    "name_en": "Nong Nam Sai",
    "latitude": 14.539,
    "longitude": 100.433,
    "DistrictId": 82
  },
  {
    "id": 140905,
    "zip_code": 13140,
    "name_th": "ดอนหญ้านาง",
    "name_en": "Don Ya Nang",
    "latitude": 14.542,
    "longitude": 100.457,
    "DistrictId": 82
  },
  {
    "id": 140906,
    "zip_code": 13140,
    "name_th": "ไผ่ล้อม",
    "name_en": "Phai Lom",
    "latitude": 14.605,
    "longitude": 100.485,
    "DistrictId": 82
  },
  {
    "id": 140907,
    "zip_code": 13140,
    "name_th": "กระจิว",
    "name_en": "Krachio",
    "latitude": 14.578,
    "longitude": 100.432,
    "DistrictId": 82
  },
  {
    "id": 140908,
    "zip_code": 13140,
    "name_th": "พระแก้ว",
    "name_en": "Phra Kaeo",
    "latitude": 14.619,
    "longitude": 100.447,
    "DistrictId": 82
  },
  {
    "id": 141001,
    "zip_code": 13230,
    "name_th": "ลาดบัวหลวง",
    "name_en": "Lat Bua Luang",
    "latitude": 14.658,
    "longitude": 100.482,
    "DistrictId": 83
  },
  {
    "id": 141002,
    "zip_code": 13230,
    "name_th": "หลักชัย",
    "name_en": "Lak Chai",
    "latitude": 14.705,
    "longitude": 100.465,
    "DistrictId": 83
  },
  {
    "id": 141003,
    "zip_code": 13230,
    "name_th": "สามเมือง",
    "name_en": "Sam Mueang",
    "latitude": 14.637,
    "longitude": 100.472,
    "DistrictId": 83
  },
  {
    "id": 141004,
    "zip_code": 13230,
    "name_th": "พระยาบันลือ",
    "name_en": "Phraya Banlue",
    "latitude": 14.646,
    "longitude": 100.449,
    "DistrictId": 83
  },
  {
    "id": 141005,
    "zip_code": 13230,
    "name_th": "สิงหนาท",
    "name_en": "Singhanat",
    "latitude": 14.672,
    "longitude": 100.456,
    "DistrictId": 83
  },
  {
    "id": 141006,
    "zip_code": 13230,
    "name_th": "คู้สลอด",
    "name_en": "Khu Salot",
    "latitude": 14.707,
    "longitude": 100.436,
    "DistrictId": 83
  },
  {
    "id": 141007,
    "zip_code": 13230,
    "name_th": "คลองพระยาบันลือ",
    "name_en": "Khlong Phraya Banlue",
    "latitude": 14.684,
    "longitude": 100.462,
    "DistrictId": 83
  },
  {
    "id": 141101,
    "zip_code": 13170,
    "name_th": "ลำตาเสา",
    "name_en": "Lam Ta Sao",
    "latitude": 14.687,
    "longitude": 100.494,
    "DistrictId": 84
  },
  {
    "id": 141102,
    "zip_code": 13170,
    "name_th": "บ่อตาโล่",
    "name_en": "Bo Ta Lo",
    "latitude": 14.676,
    "longitude": 100.498,
    "DistrictId": 84
  },
  {
    "id": 141103,
    "zip_code": 13170,
    "name_th": "วังน้อย",
    "name_en": "Wang Noi",
    "latitude": 14.509,
    "longitude": 100.461,
    "DistrictId": 84
  },
  {
    "id": 141104,
    "zip_code": 13170,
    "name_th": "ลำไทร",
    "name_en": "Lam Sai",
    "latitude": 14.501,
    "longitude": 100.437,
    "DistrictId": 84
  },